{"json":[],"cache":[{"id":"/teams?number=6627S","value":{"url":"/teams?number=6627S","created":"2025-09-14T17:51:18.624Z","data":{"meta":{"current_page":1,"first_page_url":"https://www.robotevents.com/api/v2/teams?page=1","from":1,"last_page":1,"last_page_url":"https://www.robotevents.com/api/v2/teams?page=1","next_page_url":null,"path":"https://www.robotevents.com/api/v2/teams","per_page":25,"prev_page_url":null,"to":1,"total":1},"data":[{"id":139680,"number":"6627S","team_name":"Knight Time Bots - Spades","robot_name":"Spades","organization":"FOOTHILL HIGH","location":{"venue":null,"address_1":"","address_2":null,"city":"Santa Ana","region":"California","postcode":"92705","country":"United States","coordinates":{"lat":33.8,"lon":-117.8}},"registered":true,"program":{"id":1,"name":"VEX V5 Robotics Competition","code":"V5RC"},"grade":"High School"}]}}},{"id":"/events?team=139680&start=Mon Apr 01 2024&per_page=100","value":{"url":"/events?team=139680&start=Mon Apr 01 2024&per_page=100","created":"2025-09-14T17:51:18.851Z","data":{"meta":{"current_page":1,"first_page_url":"https://www.robotevents.com/api/v2/events?page=1","from":1,"last_page":1,"last_page_url":"https://www.robotevents.com/api/v2/events?page=1","next_page_url":null,"path":"https://www.robotevents.com/api/v2/events","per_page":100,"prev_page_url":null,"to":16,"total":16},"data":[{"id":53690,"sku":"RE-VRC-23-3690","name":"2024 VEX Robotics World Championship - VEX Robotics Competition High School Event","start":"2024-04-25T00:00:00-04:00","end":"2024-04-27T00:00:00-04:00","season":{"id":181,"name":"VRC 2023-2024: Over Under","code":null},"program":{"id":1,"name":"VEX V5 Robotics Competition","code":"V5RC"},"location":{"venue":"Kay Bailey Hutchison Convention Center Dallas","address_1":"650 South Griffin Street","address_2":null,"city":"Dallas","region":"Texas","postcode":"75202","country":"United States","coordinates":{"lat":32.774509,"lon":-96.800605}},"locations":{"2024-04-25":{"venue":"Kay Bailey Hutchison Convention Center Dallas","address_1":"650 South Griffin Street","address_2":null,"city":"Dallas","region":"Texas","postcode":"75202","country":"United States","coordinates":{"lat":32.774509,"lon":-96.800605}}},"divisions":[{"id":1,"name":"Opportunity","order":1},{"id":2,"name":"Research","order":2},{"id":3,"name":"Innovate","order":3},{"id":4,"name":"Spirit","order":4},{"id":5,"name":"Design","order":5},{"id":6,"name":"Math","order":6},{"id":7,"name":"Engineering","order":7},{"id":8,"name":"Technology","order":8},{"id":9,"name":"Science","order":9},{"id":10,"name":"Arts","order":10},{"id":11,"name":"High School","order":11}],"level":"World","ongoing":false,"awards_finalized":true,"event_type":null},{"id":56866,"sku":"RE-V5RC-24-6866","name":"Downey VEX Tournament September HS Only: VEX V5 : High Stakes : High School","start":"2024-09-29T00:00:00-04:00","end":"2024-09-29T00:00:00-04:00","season":{"id":190,"name":"VEX V5 Robotics Competition 2024-2025: High Stakes","code":null},"program":{"id":1,"name":"VEX V5 Robotics Competition","code":"V5RC"},"location":{"venue":"Griffiths Middle School","address_1":"9633 Tweedy Lane","address_2":null,"city":"Downey","region":"California","postcode":"90240","country":"United States","coordinates":{"lat":33.958697,"lon":-118.128886}},"locations":{"2024-09-29":{"venue":"Griffiths Middle School","address_1":"9633 Tweedy Lane","address_2":null,"city":"Downey","region":"California","postcode":"90240","country":"United States","coordinates":{"lat":33.958697,"lon":-118.128886}}},"divisions":[{"id":1,"name":"Division 1","order":1}],"level":"Other","ongoing":false,"awards_finalized":true,"event_type":null},{"id":57715,"sku":"RE-V5RC-24-7715","name":"Beach Brawl @ McBride: VEX V5 Robotics Competition HS/MS blended","start":"2024-10-05T00:00:00-04:00","end":"2024-10-05T00:00:00-04:00","season":{"id":190,"name":"VEX V5 Robotics Competition 2024-2025: High Stakes","code":null},"program":{"id":1,"name":"VEX V5 Robotics Competition","code":"V5RC"},"location":{"venue":"McBride High School","address_1":"7025 Parkcrest Street","address_2":null,"city":"Long Beach","region":"California","postcode":"90808","country":"United States","coordinates":{"lat":33.830827,"lon":-118.098048}},"locations":{"2024-10-05":{"venue":"McBride High School","address_1":"7025 Parkcrest Street","address_2":null,"city":"Long Beach","region":"California","postcode":"90808","country":"United States","coordinates":{"lat":33.830827,"lon":-118.098048}}},"divisions":[{"id":1,"name":"Division 1","order":1}],"level":"Other","ongoing":false,"awards_finalized":true,"event_type":null},{"id":56223,"sku":"RE-V5RC-24-6223","name":"Legacy Robotics High Stakes Event Early Season Tournament: Blended MS/HS Tournament","start":"2024-10-19T00:00:00-04:00","end":"2024-10-19T00:00:00-04:00","season":{"id":190,"name":"VEX V5 Robotics Competition 2024-2025: High Stakes","code":null},"program":{"id":1,"name":"VEX V5 Robotics Competition","code":"V5RC"},"location":{"venue":"Legacy Magnet Academy","address_1":"15500 Legacy Road","address_2":null,"city":"Tustin","region":"California","postcode":"92782","country":"United States","coordinates":{"lat":33.709078,"lon":-117.820221}},"locations":{"2024-10-19":{"venue":"Legacy Magnet Academy","address_1":"15500 Legacy Road","address_2":null,"city":"Tustin","region":"California","postcode":"92782","country":"United States","coordinates":{"lat":33.709078,"lon":-117.820221}}},"divisions":[{"id":1,"name":"Division 1","order":1}],"level":"Other","ongoing":false,"awards_finalized":true,"event_type":null},{"id":55783,"sku":"RE-V5RC-24-5783","name":"V5RC, 8th Annual Damien Spartan High School Challenge: High Stakes / High School Only","start":"2024-10-27T00:00:00-04:00","end":"2024-10-27T00:00:00-04:00","season":{"id":190,"name":"VEX V5 Robotics Competition 2024-2025: High Stakes","code":null},"program":{"id":1,"name":"VEX V5 Robotics Competition","code":"V5RC"},"location":{"venue":"Damien High School","address_1":"2280 Damien Avenue","address_2":null,"city":"La Verne","region":"California","postcode":"91750","country":"United States","coordinates":{"lat":34.104401,"lon":-117.787458}},"locations":{"2024-10-27":{"venue":"Damien High School","address_1":"2280 Damien Avenue","address_2":null,"city":"La Verne","region":"California","postcode":"91750","country":"United States","coordinates":{"lat":34.104401,"lon":-117.787458}}},"divisions":[{"id":1,"name":"Division 1","order":1}],"level":"Other","ongoing":false,"awards_finalized":true,"event_type":null},{"id":56426,"sku":"RE-V5RC-24-6426","name":"VEX Victory in the Valley CANCELLED: VEX V5 : High Stakes : High School and Middle School","start":"2024-11-02T00:00:00-04:00","end":"2024-11-02T00:00:00-04:00","season":{"id":190,"name":"VEX V5 Robotics Competition 2024-2025: High Stakes","code":null},"program":{"id":1,"name":"VEX V5 Robotics Competition","code":"V5RC"},"location":{"venue":"Reseda Charter High School","address_1":"18230 Kittridge Street","address_2":null,"city":"Reseda","region":"California","postcode":"91335","country":"United States","coordinates":{"lat":34.19004,"lon":-118.53049}},"locations":{"2024-11-02":{"venue":"Reseda Charter High School","address_1":"18230 Kittridge Street","address_2":null,"city":"Reseda","region":"California","postcode":"91335","country":"United States","coordinates":{"lat":34.19004,"lon":-118.53049}}},"divisions":[{"id":1,"name":"Default","order":1}],"level":"Other","ongoing":false,"awards_finalized":false,"event_type":null},{"id":57530,"sku":"RE-V5RC-24-7530","name":"1st Annual El Capitan Robotics Rodeo: VEX V5 Robotics Competition HS/MS blended","start":"2024-11-02T00:00:00-04:00","end":"2024-11-02T00:00:00-04:00","season":{"id":190,"name":"VEX V5 Robotics Competition 2024-2025: High Stakes","code":null},"program":{"id":1,"name":"VEX V5 Robotics Competition","code":"V5RC"},"location":{"venue":"10410 Ashwood St","address_1":"10410 Ashwood Street","address_2":null,"city":"Lakeside","region":"California","postcode":"92040","country":"United States","coordinates":{"lat":32.864421,"lon":-116.918156}},"locations":{"2024-11-02":{"venue":"10410 Ashwood St","address_1":"10410 Ashwood Street","address_2":null,"city":"Lakeside","region":"California","postcode":"92040","country":"United States","coordinates":{"lat":32.864421,"lon":-116.918156}}},"divisions":[{"id":1,"name":"Division 1","order":1}],"level":"Other","ongoing":false,"awards_finalized":true,"event_type":null},{"id":57744,"sku":"RE-V5RC-24-7744","name":"Beach Brawl @ McBride :Blended MS/HS: VEX V5 Robotics Competition : High Stakes","start":"2024-11-09T00:00:00-05:00","end":"2024-11-09T00:00:00-05:00","season":{"id":190,"name":"VEX V5 Robotics Competition 2024-2025: High Stakes","code":null},"program":{"id":1,"name":"VEX V5 Robotics Competition","code":"V5RC"},"location":{"venue":"McBride High School","address_1":"7025 Parkcrest Street","address_2":null,"city":"Long Beach","region":"California","postcode":"90808","country":"United States","coordinates":{"lat":33.830827,"lon":-118.098048}},"locations":{"2024-11-09":{"venue":"McBride High School","address_1":"7025 Parkcrest Street","address_2":null,"city":"Long Beach","region":"California","postcode":"90808","country":"United States","coordinates":{"lat":33.830827,"lon":-118.098048}}},"divisions":[{"id":1,"name":"Division 1","order":1}],"level":"Other","ongoing":false,"awards_finalized":true,"event_type":null},{"id":57220,"sku":"RE-V5RC-24-7220","name":"Bots & Bolts II Donut Domination, Re-repeat: VEX V5 : High Stakes : High School","start":"2024-11-17T00:00:00-05:00","end":"2024-11-17T00:00:00-05:00","season":{"id":190,"name":"VEX V5 Robotics Competition 2024-2025: High Stakes","code":null},"program":{"id":1,"name":"VEX V5 Robotics Competition","code":"V5RC"},"location":{"venue":"La Serna High School","address_1":"15301 Youngwood Drive","address_2":null,"city":"Whittier","region":"California","postcode":"90605","country":"United States","coordinates":{"lat":33.954665,"lon":-117.997861}},"locations":{"2024-11-17":{"venue":"La Serna High School","address_1":"15301 Youngwood Drive","address_2":null,"city":"Whittier","region":"California","postcode":"90605","country":"United States","coordinates":{"lat":33.954665,"lon":-117.997861}}},"divisions":[{"id":1,"name":"Division 1","order":1}],"level":"Other","ongoing":false,"awards_finalized":true,"event_type":null},{"id":56084,"sku":"RE-V5RC-24-6084","name":"Harvard-Westlake Challenge - HS Only: V5RC : High Stakes","start":"2024-12-08T00:00:00-05:00","end":"2024-12-08T00:00:00-05:00","season":{"id":190,"name":"VEX V5 Robotics Competition 2024-2025: High Stakes","code":null},"program":{"id":1,"name":"VEX V5 Robotics Competition","code":"V5RC"},"location":{"venue":"Harvard-Westlake Upper School","address_1":"3700 Coldwater Canyon Avenue","address_2":null,"city":"Los Angeles","region":"California","postcode":"91604","country":"United States","coordinates":{"lat":34.139618,"lon":-118.412796}},"locations":{"2024-12-08":{"venue":"Harvard-Westlake Upper School","address_1":"3700 Coldwater Canyon Avenue","address_2":null,"city":"Los Angeles","region":"California","postcode":"91604","country":"United States","coordinates":{"lat":34.139618,"lon":-118.412796}}},"divisions":[{"id":1,"name":"Division 1","order":1}],"level":"Other","ongoing":false,"awards_finalized":true,"event_type":null},{"id":55729,"sku":"RE-V5RC-24-5729","name":"NorCal Silicon Valley VEX V5 Robotics Competition Signature Event: High School","start":"2025-02-14T00:00:00-05:00","end":"2025-02-16T00:00:00-05:00","season":{"id":190,"name":"VEX V5 Robotics Competition 2024-2025: High Stakes","code":null},"program":{"id":1,"name":"VEX V5 Robotics Competition","code":"V5RC"},"location":{"venue":"India Community Center","address_1":"525 Los Coches Street","address_2":null,"city":"Milpitas","region":"California","postcode":"95035","country":"United States","coordinates":{"lat":37.431724,"lon":-121.895682}},"locations":{"2025-02-14":{"venue":"India Community Center","address_1":"525 Los Coches Street","address_2":null,"city":"Milpitas","region":"California","postcode":"95035","country":"United States","coordinates":{"lat":37.431724,"lon":-121.895682}}},"divisions":[{"id":1,"name":"Division 1","order":1}],"level":"Signature","ongoing":false,"awards_finalized":true,"event_type":null},{"id":57292,"sku":"RE-V5RC-24-7292","name":"2025 California Region 4 High School Regional Championship: VEX V5 Robotics Competition | High Stakes","start":"2025-03-14T00:00:00-04:00","end":"2025-03-16T00:00:00-04:00","season":{"id":190,"name":"VEX V5 Robotics Competition 2024-2025: High Stakes","code":null},"program":{"id":1,"name":"VEX V5 Robotics Competition","code":"V5RC"},"location":{"venue":"Damien High School","address_1":"2280 Damien Avenue","address_2":null,"city":"La Verne","region":"California","postcode":"91750","country":"United States","coordinates":{"lat":34.104401,"lon":-117.787458}},"locations":{"2025-03-14":{"venue":"Damien High School","address_1":"2280 Damien Avenue","address_2":null,"city":"La Verne","region":"California","postcode":"91750","country":"United States","coordinates":{"lat":34.104401,"lon":-117.787458}}},"divisions":[{"id":1,"name":"Default Division","order":1}],"level":"Regional","ongoing":false,"awards_finalized":true,"event_type":null},{"id":60810,"sku":"RE-V5RC-25-0810","name":"robotics is ez @ 2025 maker faire orange county - hs: vex v5 robotics competition - push back","start":"2025-09-14T00:00:00-04:00","end":"2025-09-14T00:00:00-04:00","season":{"id":197,"name":"VEX V5 Robotics Competition 2025-2026: Push Back","code":null},"program":{"id":1,"name":"VEX V5 Robotics Competition","code":"V5RC"},"location":{"venue":"OC Fair & Event Center","address_1":"88 Fair Drive","address_2":null,"city":"Costa Mesa","region":"California","postcode":"92626","country":"United States","coordinates":{"lat":33.666253,"lon":-117.902621}},"locations":{"2025-09-14":{"venue":"OC Fair & Event Center","address_1":"88 Fair Drive","address_2":null,"city":"Costa Mesa","region":"California","postcode":"92626","country":"United States","coordinates":{"lat":33.666253,"lon":-117.902621}}},"divisions":[{"id":1,"name":"Division 1","order":1}],"level":"Other","ongoing":true,"awards_finalized":false,"event_type":null},{"id":61421,"sku":"RE-V5RC-25-1421","name":"Stauffer Challenge Tournament October HS Only: VEX V5 Robotics Competition : Push Back","start":"2025-10-05T00:00:00-04:00","end":"2025-10-05T00:00:00-04:00","season":{"id":197,"name":"VEX V5 Robotics Competition 2025-2026: Push Back","code":null},"program":{"id":1,"name":"VEX V5 Robotics Competition","code":"V5RC"},"location":{"venue":"Mary R. Stauffer Middle School","address_1":"11985 Old River School Road","address_2":null,"city":"Downey","region":"California","postcode":"90242","country":"United States","coordinates":{"lat":33.938901,"lon":-118.156291}},"locations":{"2025-10-05":{"venue":"Mary R. Stauffer Middle School","address_1":"11985 Old River School Road","address_2":null,"city":"Downey","region":"California","postcode":"90242","country":"United States","coordinates":{"lat":33.938901,"lon":-118.156291}}},"divisions":[{"id":1,"name":"Default","order":1}],"level":"Other","ongoing":false,"awards_finalized":false,"event_type":null},{"id":61049,"sku":"RE-V5RC-25-1049","name":"Beach Brawl 10/18 VEX Robotics Competition : Push Back: Beach Brawl @ McBride High School","start":"2025-10-18T00:00:00-04:00","end":"2025-10-18T00:00:00-04:00","season":{"id":197,"name":"VEX V5 Robotics Competition 2025-2026: Push Back","code":null},"program":{"id":1,"name":"VEX V5 Robotics Competition","code":"V5RC"},"location":{"venue":"McBride High School","address_1":"7025 Parkcrest Street","address_2":null,"city":"Long Beach","region":"California","postcode":"90808","country":"United States","coordinates":{"lat":33.830827,"lon":-118.098048}},"locations":{"2025-10-18":{"venue":"McBride High School","address_1":"7025 Parkcrest Street","address_2":null,"city":"Long Beach","region":"California","postcode":"90808","country":"United States","coordinates":{"lat":33.830827,"lon":-118.098048}}},"divisions":[{"id":1,"name":"Default","order":1}],"level":"Other","ongoing":false,"awards_finalized":false,"event_type":null},{"id":60763,"sku":"RE-V5RC-25-0763","name":"Harvard-Westlake Challenge - HS Only: V5RC : Push Back","start":"2025-12-14T00:00:00-05:00","end":"2025-12-14T00:00:00-05:00","season":{"id":197,"name":"VEX V5 Robotics Competition 2025-2026: Push Back","code":null},"program":{"id":1,"name":"VEX V5 Robotics Competition","code":"V5RC"},"location":{"venue":"Harvard-Westlake Upper School","address_1":"3700 Coldwater Canyon Avenue","address_2":null,"city":"Los Angeles","region":"California","postcode":"91604","country":"United States","coordinates":{"lat":34.139618,"lon":-118.412796}},"locations":{"2025-12-14":{"venue":"Harvard-Westlake Upper School","address_1":"3700 Coldwater Canyon Avenue","address_2":null,"city":"Los Angeles","region":"California","postcode":"91604","country":"United States","coordinates":{"lat":34.139618,"lon":-118.412796}}},"divisions":[{"id":1,"name":"Default","order":1}],"level":"Other","ongoing":false,"awards_finalized":false,"event_type":null}]}}},{"id":"/events/60810","value":{"url":"/events/60810","created":"2025-09-14T17:51:23.346Z","data":{"id":60810,"sku":"RE-V5RC-25-0810","name":"robotics is ez @ 2025 maker faire orange county - hs: vex v5 robotics competition - push back","start":"2025-09-14T00:00:00-04:00","end":"2025-09-14T00:00:00-04:00","season":{"id":197,"name":"VEX V5 Robotics Competition 2025-2026: Push Back","code":null},"program":{"id":1,"name":"VEX V5 Robotics Competition","code":"V5RC"},"location":{"venue":"OC Fair & Event Center","address_1":"88 Fair Drive","address_2":null,"city":"Costa Mesa","region":"California","postcode":"92626","country":"United States","coordinates":{"lat":33.666253,"lon":-117.902621}},"locations":{"2025-09-14":{"venue":"OC Fair & Event Center","address_1":"88 Fair Drive","address_2":null,"city":"Costa Mesa","region":"California","postcode":"92626","country":"United States","coordinates":{"lat":33.666253,"lon":-117.902621}}},"divisions":[{"id":1,"name":"Division 1","order":1}],"level":"Other","ongoing":true,"awards_finalized":false,"event_type":null}}},{"id":"/teams/139680","value":{"url":"/teams/139680","created":"2025-09-14T17:51:26.233Z","data":{"id":139680,"number":"6627S","team_name":"Knight Time Bots - Spades","robot_name":"Spades","organization":"FOOTHILL HIGH","location":{"venue":null,"address_1":"","address_2":null,"city":"Santa Ana","region":"California","postcode":"92705","country":"United States","coordinates":{"lat":33.8,"lon":-117.8}},"registered":true,"program":{"id":1,"name":"VEX V5 Robotics Competition","code":"V5RC"},"grade":"High School"}}},{"id":"/events/60810/divisions/1/matches?page=1&per_page=250","value":{"url":"/events/60810/divisions/1/matches?page=1&per_page=250","created":"2025-09-14T17:53:12.438Z","data":{"meta":{"current_page":1,"first_page_url":"https://www.robotevents.com/api/v2/events/60810/divisions/1/matches?page=1","from":1,"last_page":1,"last_page_url":"https://www.robotevents.com/api/v2/events/60810/divisions/1/matches?page=1","next_page_url":null,"path":"https://www.robotevents.com/api/v2/events/60810/divisions/1/matches","per_page":250,"prev_page_url":null,"to":62,"total":62},"data":[{"id":117238387,"event":{"id":60810,"name":"robotics is ez @ 2025 maker faire orange county - hs: vex v5 robotics competition - push back","code":"RE-V5RC-25-0810"},"division":{"id":1,"name":"Division 1","code":null},"round":2,"instance":1,"matchnum":1,"scheduled":"2025-09-14T12:00:00-04:00","started":"2025-09-14T13:00:28-04:00","field":"Field 6","scored":false,"name":"Qualifier #1","alliances":[{"color":"blue","score":21,"teams":[{"team":{"id":841,"name":"21C","code":null},"sitting":false},{"team":{"id":831,"name":"21A","code":null},"sitting":false}]},{"color":"red","score":46,"teams":[{"team":{"id":155333,"name":"2428W","code":null},"sitting":false},{"team":{"id":35602,"name":"1138B","code":null},"sitting":false}]}],"updated_at":"2025-09-14T13:50:21-04:00"},{"id":117238388,"event":{"id":60810,"name":"robotics is ez @ 2025 maker faire orange county - hs: vex v5 robotics competition - push back","code":"RE-V5RC-25-0810"},"division":{"id":1,"name":"Division 1","code":null},"round":2,"instance":1,"matchnum":2,"scheduled":"2025-09-14T12:04:23-04:00","started":"2025-09-14T13:04:40-04:00","field":"Field 7","scored":false,"name":"Qualifier #2","alliances":[{"color":"blue","score":33,"teams":[{"team":{"id":185249,"name":"9621V","code":null},"sitting":false},{"team":{"id":184662,"name":"41939V","code":null},"sitting":false}]},{"color":"red","score":63,"teams":[{"team":{"id":169926,"name":"334W","code":null},"sitting":false},{"team":{"id":172554,"name":"98601C","code":null},"sitting":false}]}],"updated_at":"2025-09-14T13:50:21-04:00"},{"id":117238389,"event":{"id":60810,"name":"robotics is ez @ 2025 maker faire orange county - hs: vex v5 robotics competition - push back","code":"RE-V5RC-25-0810"},"division":{"id":1,"name":"Division 1","code":null},"round":2,"instance":1,"matchnum":3,"scheduled":"2025-09-14T12:08:46-04:00","started":"2025-09-14T13:07:47-04:00","field":"Field 6","scored":false,"name":"Qualifier #3","alliances":[{"color":"blue","score":34,"teams":[{"team":{"id":93708,"name":"6627X","code":null},"sitting":false},{"team":{"id":184828,"name":"1744X","code":null},"sitting":false}]},{"color":"red","score":46,"teams":[{"team":{"id":154424,"name":"7899X","code":null},"sitting":false},{"team":{"id":142323,"name":"3050X","code":null},"sitting":false}]}],"updated_at":"2025-09-14T13:50:21-04:00"},{"id":117238390,"event":{"id":60810,"name":"robotics is ez @ 2025 maker faire orange county - hs: vex v5 robotics competition - push back","code":"RE-V5RC-25-0810"},"division":{"id":1,"name":"Division 1","code":null},"round":2,"instance":1,"matchnum":4,"scheduled":"2025-09-14T12:13:09-04:00","started":"2025-09-14T13:11:47-04:00","field":"Field 7","scored":false,"name":"Qualifier #4","alliances":[{"color":"blue","score":94,"teams":[{"team":{"id":11998,"name":"2150A","code":null},"sitting":false},{"team":{"id":122798,"name":"884A","code":null},"sitting":false}]},{"color":"red","score":20,"teams":[{"team":{"id":70487,"name":"21S","code":null},"sitting":false},{"team":{"id":64292,"name":"6627D","code":null},"sitting":false}]}],"updated_at":"2025-09-14T13:50:21-04:00"},{"id":117238391,"event":{"id":60810,"name":"robotics is ez @ 2025 maker faire orange county - hs: vex v5 robotics competition - push back","code":"RE-V5RC-25-0810"},"division":{"id":1,"name":"Division 1","code":null},"round":2,"instance":1,"matchnum":5,"scheduled":"2025-09-14T12:17:32-04:00","started":"2025-09-14T13:17:03-04:00","field":"Field 6","scored":false,"name":"Qualifier #5","alliances":[{"color":"blue","score":48,"teams":[{"team":{"id":185134,"name":"334C","code":null},"sitting":false},{"team":{"id":128664,"name":"393C","code":null},"sitting":false}]},{"color":"red","score":58,"teams":[{"team":{"id":33301,"name":"404E","code":null},"sitting":false},{"team":{"id":154186,"name":"334U","code":null},"sitting":false}]}],"updated_at":"2025-09-14T13:50:21-04:00"},{"id":117238392,"event":{"id":60810,"name":"robotics is ez @ 2025 maker faire orange county - hs: vex v5 robotics competition - push back","code":"RE-V5RC-25-0810"},"division":{"id":1,"name":"Division 1","code":null},"round":2,"instance":1,"matchnum":6,"scheduled":"2025-09-14T12:21:55-04:00","started":"2025-09-14T13:20:39-04:00","field":"Field 7","scored":false,"name":"Qualifier #6","alliances":[{"color":"blue","score":96,"teams":[{"team":{"id":185108,"name":"334H","code":null},"sitting":false},{"team":{"id":185015,"name":"3595V","code":null},"sitting":false}]},{"color":"red","score":50,"teams":[{"team":{"id":56122,"name":"404S","code":null},"sitting":false},{"team":{"id":142325,"name":"3050V","code":null},"sitting":false}]}],"updated_at":"2025-09-14T13:50:21-04:00"},{"id":117238393,"event":{"id":60810,"name":"robotics is ez @ 2025 maker faire orange county - hs: vex v5 robotics competition - push back","code":"RE-V5RC-25-0810"},"division":{"id":1,"name":"Division 1","code":null},"round":2,"instance":1,"matchnum":7,"scheduled":"2025-09-14T12:26:18-04:00","started":"2025-09-14T13:24:40-04:00","field":"Field 6","scored":false,"name":"Qualifier #7","alliances":[{"color":"blue","score":44,"teams":[{"team":{"id":155496,"name":"7899B","code":null},"sitting":false},{"team":{"id":175446,"name":"50881A","code":null},"sitting":false}]},{"color":"red","score":90,"teams":[{"team":{"id":153990,"name":"393E","code":null},"sitting":false},{"team":{"id":142324,"name":"3050W","code":null},"sitting":false}]}],"updated_at":"2025-09-14T13:50:21-04:00"},{"id":117238394,"event":{"id":60810,"name":"robotics is ez @ 2025 maker faire orange county - hs: vex v5 robotics competition - push back","code":"RE-V5RC-25-0810"},"division":{"id":1,"name":"Division 1","code":null},"round":2,"instance":1,"matchnum":8,"scheduled":"2025-09-14T12:30:41-04:00","started":"2025-09-14T13:29:08-04:00","field":"Field 7","scored":false,"name":"Qualifier #8","alliances":[{"color":"blue","score":107,"teams":[{"team":{"id":70368,"name":"2496N","code":null},"sitting":false},{"team":{"id":56152,"name":"2150X","code":null},"sitting":false}]},{"color":"red","score":15,"teams":[{"team":{"id":185403,"name":"50881B","code":null},"sitting":false},{"team":{"id":164167,"name":"79793V","code":null},"sitting":false}]}],"updated_at":"2025-09-14T13:50:21-04:00"},{"id":117238395,"event":{"id":60810,"name":"robotics is ez @ 2025 maker faire orange county - hs: vex v5 robotics competition - push back","code":"RE-V5RC-25-0810"},"division":{"id":1,"name":"Division 1","code":null},"round":2,"instance":1,"matchnum":9,"scheduled":"2025-09-14T12:35:04-04:00","started":"2025-09-14T13:33:04-04:00","field":"Field 6","scored":false,"name":"Qualifier #9","alliances":[{"color":"blue","score":34,"teams":[{"team":{"id":173699,"name":"3050Y","code":null},"sitting":false},{"team":{"id":169890,"name":"8917B","code":null},"sitting":false}]},{"color":"red","score":33,"teams":[{"team":{"id":139680,"name":"6627S","code":null},"sitting":false},{"team":{"id":170065,"name":"2397A","code":null},"sitting":false}]}],"updated_at":"2025-09-14T13:50:21-04:00"},{"id":117238396,"event":{"id":60810,"name":"robotics is ez @ 2025 maker faire orange county - hs: vex v5 robotics competition - push back","code":"RE-V5RC-25-0810"},"division":{"id":1,"name":"Division 1","code":null},"round":2,"instance":1,"matchnum":10,"scheduled":"2025-09-14T12:39:27-04:00","started":"2025-09-14T13:36:02-04:00","field":"Field 7","scored":false,"name":"Qualifier #10","alliances":[{"color":"blue","score":57,"teams":[{"team":{"id":186744,"name":"3577A","code":null},"sitting":false},{"team":{"id":50480,"name":"6627A","code":null},"sitting":false}]},{"color":"red","score":62,"teams":[{"team":{"id":128665,"name":"393D","code":null},"sitting":false},{"team":{"id":154106,"name":"9924X","code":null},"sitting":false}]}],"updated_at":"2025-09-14T13:50:21-04:00"},{"id":117238397,"event":{"id":60810,"name":"robotics is ez @ 2025 maker faire orange county - hs: vex v5 robotics competition - push back","code":"RE-V5RC-25-0810"},"division":{"id":1,"name":"Division 1","code":null},"round":2,"instance":1,"matchnum":11,"scheduled":"2025-09-14T12:43:50-04:00","started":"2025-09-14T13:41:32-04:00","field":"Field 6","scored":false,"name":"Qualifier #11","alliances":[{"color":"blue","score":50,"teams":[{"team":{"id":93708,"name":"6627X","code":null},"sitting":false},{"team":{"id":169926,"name":"334W","code":null},"sitting":false}]},{"color":"red","score":53,"teams":[{"team":{"id":169488,"name":"12125A","code":null},"sitting":false},{"team":{"id":122798,"name":"884A","code":null},"sitting":false}]}],"updated_at":"2025-09-14T13:50:21-04:00"},{"id":117238398,"event":{"id":60810,"name":"robotics is ez @ 2025 maker faire orange county - hs: vex v5 robotics competition - push back","code":"RE-V5RC-25-0810"},"division":{"id":1,"name":"Division 1","code":null},"round":2,"instance":1,"matchnum":12,"scheduled":"2025-09-14T12:48:13-04:00","started":"2025-09-14T13:44:16-04:00","field":"Field 7","scored":false,"name":"Qualifier #12","alliances":[{"color":"blue","score":64,"teams":[{"team":{"id":185108,"name":"334H","code":null},"sitting":false},{"team":{"id":185249,"name":"9621V","code":null},"sitting":false}]},{"color":"red","score":51,"teams":[{"team":{"id":185134,"name":"334C","code":null},"sitting":false},{"team":{"id":155496,"name":"7899B","code":null},"sitting":false}]}],"updated_at":"2025-09-14T13:50:21-04:00"},{"id":117238399,"event":{"id":60810,"name":"robotics is ez @ 2025 maker faire orange county - hs: vex v5 robotics competition - push back","code":"RE-V5RC-25-0810"},"division":{"id":1,"name":"Division 1","code":null},"round":2,"instance":1,"matchnum":13,"scheduled":"2025-09-14T12:52:36-04:00","started":"2025-09-14T13:47:40-04:00","field":"Field 6","scored":false,"name":"Qualifier #13","alliances":[{"color":"blue","score":39,"teams":[{"team":{"id":142324,"name":"3050W","code":null},"sitting":false},{"team":{"id":56122,"name":"404S","code":null},"sitting":false}]},{"color":"red","score":88,"teams":[{"team":{"id":841,"name":"21C","code":null},"sitting":false},{"team":{"id":154186,"name":"334U","code":null},"sitting":false}]}],"updated_at":"2025-09-14T13:50:21-04:00"},{"id":117238400,"event":{"id":60810,"name":"robotics is ez @ 2025 maker faire orange county - hs: vex v5 robotics competition - push back","code":"RE-V5RC-25-0810"},"division":{"id":1,"name":"Division 1","code":null},"round":2,"instance":1,"matchnum":14,"scheduled":"2025-09-14T12:56:59-04:00","started":null,"field":"Field 7","scored":false,"name":"Qualifier #14","alliances":[{"color":"blue","score":0,"teams":[{"team":{"id":155333,"name":"2428W","code":null},"sitting":false},{"team":{"id":185403,"name":"50881B","code":null},"sitting":false}]},{"color":"red","score":0,"teams":[{"team":{"id":11998,"name":"2150A","code":null},"sitting":false},{"team":{"id":184828,"name":"1744X","code":null},"sitting":false}]}],"updated_at":"2025-09-14T13:50:21-04:00"},{"id":117238401,"event":{"id":60810,"name":"robotics is ez @ 2025 maker faire orange county - hs: vex v5 robotics competition - push back","code":"RE-V5RC-25-0810"},"division":{"id":1,"name":"Division 1","code":null},"round":2,"instance":1,"matchnum":15,"scheduled":"2025-09-14T13:01:22-04:00","started":null,"field":"Field 6","scored":false,"name":"Qualifier #15","alliances":[{"color":"blue","score":0,"teams":[{"team":{"id":35602,"name":"1138B","code":null},"sitting":false},{"team":{"id":170065,"name":"2397A","code":null},"sitting":false}]},{"color":"red","score":0,"teams":[{"team":{"id":50480,"name":"6627A","code":null},"sitting":false},{"team":{"id":56152,"name":"2150X","code":null},"sitting":false}]}],"updated_at":"2025-09-14T13:50:21-04:00"},{"id":117238402,"event":{"id":60810,"name":"robotics is ez @ 2025 maker faire orange county - hs: vex v5 robotics competition - push back","code":"RE-V5RC-25-0810"},"division":{"id":1,"name":"Division 1","code":null},"round":2,"instance":1,"matchnum":16,"scheduled":"2025-09-14T13:05:45-04:00","started":null,"field":"Field 7","scored":false,"name":"Qualifier #16","alliances":[{"color":"blue","score":0,"teams":[{"team":{"id":70487,"name":"21S","code":null},"sitting":false},{"team":{"id":142325,"name":"3050V","code":null},"sitting":false}]},{"color":"red","score":0,"teams":[{"team":{"id":154106,"name":"9924X","code":null},"sitting":false},{"team":{"id":164167,"name":"79793V","code":null},"sitting":false}]}],"updated_at":"2025-09-14T13:50:21-04:00"},{"id":117238403,"event":{"id":60810,"name":"robotics is ez @ 2025 maker faire orange county - hs: vex v5 robotics competition - push back","code":"RE-V5RC-25-0810"},"division":{"id":1,"name":"Division 1","code":null},"round":2,"instance":1,"matchnum":17,"scheduled":"2025-09-14T13:10:08-04:00","started":null,"field":"Field 6","scored":false,"name":"Qualifier #17","alliances":[{"color":"blue","score":0,"teams":[{"team":{"id":169488,"name":"12125A","code":null},"sitting":false},{"team":{"id":175446,"name":"50881A","code":null},"sitting":false}]},{"color":"red","score":0,"teams":[{"team":{"id":173699,"name":"3050Y","code":null},"sitting":false},{"team":{"id":70368,"name":"2496N","code":null},"sitting":false}]}],"updated_at":"2025-09-14T13:50:21-04:00"},{"id":117238404,"event":{"id":60810,"name":"robotics is ez @ 2025 maker faire orange county - hs: vex v5 robotics competition - push back","code":"RE-V5RC-25-0810"},"division":{"id":1,"name":"Division 1","code":null},"round":2,"instance":1,"matchnum":18,"scheduled":"2025-09-14T13:14:31-04:00","started":null,"field":"Field 7","scored":false,"name":"Qualifier #18","alliances":[{"color":"blue","score":0,"teams":[{"team":{"id":33301,"name":"404E","code":null},"sitting":false},{"team":{"id":154424,"name":"7899X","code":null},"sitting":false}]},{"color":"red","score":0,"teams":[{"team":{"id":186744,"name":"3577A","code":null},"sitting":false},{"team":{"id":831,"name":"21A","code":null},"sitting":false}]}],"updated_at":"2025-09-14T13:50:21-04:00"},{"id":117238405,"event":{"id":60810,"name":"robotics is ez @ 2025 maker faire orange county - hs: vex v5 robotics competition - push back","code":"RE-V5RC-25-0810"},"division":{"id":1,"name":"Division 1","code":null},"round":2,"instance":1,"matchnum":19,"scheduled":"2025-09-14T13:18:54-04:00","started":null,"field":"Field 6","scored":false,"name":"Qualifier #19","alliances":[{"color":"blue","score":0,"teams":[{"team":{"id":172554,"name":"98601C","code":null},"sitting":false},{"team":{"id":128665,"name":"393D","code":null},"sitting":false}]},{"color":"red","score":0,"teams":[{"team":{"id":128664,"name":"393C","code":null},"sitting":false},{"team":{"id":185015,"name":"3595V","code":null},"sitting":false}]}],"updated_at":"2025-09-14T13:50:21-04:00"},{"id":117238406,"event":{"id":60810,"name":"robotics is ez @ 2025 maker faire orange county - hs: vex v5 robotics competition - push back","code":"RE-V5RC-25-0810"},"division":{"id":1,"name":"Division 1","code":null},"round":2,"instance":1,"matchnum":20,"scheduled":"2025-09-14T13:23:17-04:00","started":null,"field":"Field 7","scored":false,"name":"Qualifier #20","alliances":[{"color":"blue","score":0,"teams":[{"team":{"id":142323,"name":"3050X","code":null},"sitting":false},{"team":{"id":64292,"name":"6627D","code":null},"sitting":false}]},{"color":"red","score":0,"teams":[{"team":{"id":169890,"name":"8917B","code":null},"sitting":false},{"team":{"id":184662,"name":"41939V","code":null},"sitting":false}]}],"updated_at":"2025-09-14T13:50:21-04:00"},{"id":117238407,"event":{"id":60810,"name":"robotics is ez @ 2025 maker faire orange county - hs: vex v5 robotics competition - push back","code":"RE-V5RC-25-0810"},"division":{"id":1,"name":"Division 1","code":null},"round":2,"instance":1,"matchnum":21,"scheduled":"2025-09-14T13:27:40-04:00","started":null,"field":"Field 6","scored":false,"name":"Qualifier #21","alliances":[{"color":"blue","score":0,"teams":[{"team":{"id":139680,"name":"6627S","code":null},"sitting":false},{"team":{"id":154106,"name":"9924X","code":null},"sitting":false}]},{"color":"red","score":0,"teams":[{"team":{"id":185108,"name":"334H","code":null},"sitting":false},{"team":{"id":153990,"name":"393E","code":null},"sitting":false}]}],"updated_at":"2025-09-14T13:50:21-04:00"},{"id":117238408,"event":{"id":60810,"name":"robotics is ez @ 2025 maker faire orange county - hs: vex v5 robotics competition - push back","code":"RE-V5RC-25-0810"},"division":{"id":1,"name":"Division 1","code":null},"round":2,"instance":1,"matchnum":22,"scheduled":"2025-09-14T13:32:03-04:00","started":null,"field":"Field 7","scored":false,"name":"Qualifier #22","alliances":[{"color":"blue","score":0,"teams":[{"team":{"id":70487,"name":"21S","code":null},"sitting":false},{"team":{"id":184828,"name":"1744X","code":null},"sitting":false}]},{"color":"red","score":0,"teams":[{"team":{"id":169926,"name":"334W","code":null},"sitting":false},{"team":{"id":142324,"name":"3050W","code":null},"sitting":false}]}],"updated_at":"2025-09-14T13:50:21-04:00"},{"id":117238409,"event":{"id":60810,"name":"robotics is ez @ 2025 maker faire orange county - hs: vex v5 robotics competition - push back","code":"RE-V5RC-25-0810"},"division":{"id":1,"name":"Division 1","code":null},"round":2,"instance":1,"matchnum":23,"scheduled":"2025-09-14T13:36:26-04:00","started":null,"field":"Field 6","scored":false,"name":"Qualifier #23","alliances":[{"color":"blue","score":0,"teams":[{"team":{"id":35602,"name":"1138B","code":null},"sitting":false},{"team":{"id":154186,"name":"334U","code":null},"sitting":false}]},{"color":"red","score":0,"teams":[{"team":{"id":185403,"name":"50881B","code":null},"sitting":false},{"team":{"id":122798,"name":"884A","code":null},"sitting":false}]}],"updated_at":"2025-09-14T13:50:21-04:00"},{"id":117238410,"event":{"id":60810,"name":"robotics is ez @ 2025 maker faire orange county - hs: vex v5 robotics competition - push back","code":"RE-V5RC-25-0810"},"division":{"id":1,"name":"Division 1","code":null},"round":2,"instance":1,"matchnum":24,"scheduled":"2025-09-14T13:40:49-04:00","started":null,"field":"Field 7","scored":false,"name":"Qualifier #24","alliances":[{"color":"blue","score":0,"teams":[{"team":{"id":142325,"name":"3050V","code":null},"sitting":false},{"team":{"id":128665,"name":"393D","code":null},"sitting":false}]},{"color":"red","score":0,"teams":[{"team":{"id":173699,"name":"3050Y","code":null},"sitting":false},{"team":{"id":831,"name":"21A","code":null},"sitting":false}]}],"updated_at":"2025-09-14T13:50:21-04:00"},{"id":117238411,"event":{"id":60810,"name":"robotics is ez @ 2025 maker faire orange county - hs: vex v5 robotics competition - push back","code":"RE-V5RC-25-0810"},"division":{"id":1,"name":"Division 1","code":null},"round":2,"instance":1,"matchnum":25,"scheduled":"2025-09-14T13:45:12-04:00","started":null,"field":"Field 6","scored":false,"name":"Qualifier #25","alliances":[{"color":"blue","score":0,"teams":[{"team":{"id":170065,"name":"2397A","code":null},"sitting":false},{"team":{"id":70368,"name":"2496N","code":null},"sitting":false}]},{"color":"red","score":0,"teams":[{"team":{"id":93708,"name":"6627X","code":null},"sitting":false},{"team":{"id":155496,"name":"7899B","code":null},"sitting":false}]}],"updated_at":"2025-09-14T13:50:21-04:00"},{"id":117238412,"event":{"id":60810,"name":"robotics is ez @ 2025 maker faire orange county - hs: vex v5 robotics competition - push back","code":"RE-V5RC-25-0810"},"division":{"id":1,"name":"Division 1","code":null},"round":2,"instance":1,"matchnum":26,"scheduled":"2025-09-14T13:49:35-04:00","started":null,"field":"Field 7","scored":false,"name":"Qualifier #26","alliances":[{"color":"blue","score":0,"teams":[{"team":{"id":841,"name":"21C","code":null},"sitting":false},{"team":{"id":185015,"name":"3595V","code":null},"sitting":false}]},{"color":"red","score":0,"teams":[{"team":{"id":185249,"name":"9621V","code":null},"sitting":false},{"team":{"id":64292,"name":"6627D","code":null},"sitting":false}]}],"updated_at":"2025-09-14T13:50:21-04:00"},{"id":117238413,"event":{"id":60810,"name":"robotics is ez @ 2025 maker faire orange county - hs: vex v5 robotics competition - push back","code":"RE-V5RC-25-0810"},"division":{"id":1,"name":"Division 1","code":null},"round":2,"instance":1,"matchnum":27,"scheduled":"2025-09-14T13:53:58-04:00","started":null,"field":"Field 6","scored":false,"name":"Qualifier #27","alliances":[{"color":"blue","score":0,"teams":[{"team":{"id":142323,"name":"3050X","code":null},"sitting":false},{"team":{"id":185134,"name":"334C","code":null},"sitting":false}]},{"color":"red","score":0,"teams":[{"team":{"id":175446,"name":"50881A","code":null},"sitting":false},{"team":{"id":139680,"name":"6627S","code":null},"sitting":false}]}],"updated_at":"2025-09-14T13:50:21-04:00"},{"id":117238414,"event":{"id":60810,"name":"robotics is ez @ 2025 maker faire orange county - hs: vex v5 robotics competition - push back","code":"RE-V5RC-25-0810"},"division":{"id":1,"name":"Division 1","code":null},"round":2,"instance":1,"matchnum":28,"scheduled":"2025-09-14T13:58:21-04:00","started":null,"field":"Field 7","scored":false,"name":"Qualifier #28","alliances":[{"color":"blue","score":0,"teams":[{"team":{"id":56152,"name":"2150X","code":null},"sitting":false},{"team":{"id":169488,"name":"12125A","code":null},"sitting":false}]},{"color":"red","score":0,"teams":[{"team":{"id":169890,"name":"8917B","code":null},"sitting":false},{"team":{"id":56122,"name":"404S","code":null},"sitting":false}]}],"updated_at":"2025-09-14T13:50:21-04:00"},{"id":117238415,"event":{"id":60810,"name":"robotics is ez @ 2025 maker faire orange county - hs: vex v5 robotics competition - push back","code":"RE-V5RC-25-0810"},"division":{"id":1,"name":"Division 1","code":null},"round":2,"instance":1,"matchnum":29,"scheduled":"2025-09-14T14:02:44-04:00","started":null,"field":"Field 6","scored":false,"name":"Qualifier #29","alliances":[{"color":"blue","score":0,"teams":[{"team":{"id":186744,"name":"3577A","code":null},"sitting":false},{"team":{"id":155333,"name":"2428W","code":null},"sitting":false}]},{"color":"red","score":0,"teams":[{"team":{"id":184662,"name":"41939V","code":null},"sitting":false},{"team":{"id":128664,"name":"393C","code":null},"sitting":false}]}],"updated_at":"2025-09-14T13:50:21-04:00"},{"id":117238416,"event":{"id":60810,"name":"robotics is ez @ 2025 maker faire orange county - hs: vex v5 robotics competition - push back","code":"RE-V5RC-25-0810"},"division":{"id":1,"name":"Division 1","code":null},"round":2,"instance":1,"matchnum":30,"scheduled":"2025-09-14T14:07:07-04:00","started":null,"field":"Field 7","scored":false,"name":"Qualifier #30","alliances":[{"color":"blue","score":0,"teams":[{"team":{"id":153990,"name":"393E","code":null},"sitting":false},{"team":{"id":154424,"name":"7899X","code":null},"sitting":false}]},{"color":"red","score":0,"teams":[{"team":{"id":11998,"name":"2150A","code":null},"sitting":false},{"team":{"id":172554,"name":"98601C","code":null},"sitting":false}]}],"updated_at":"2025-09-14T13:50:21-04:00"},{"id":117238417,"event":{"id":60810,"name":"robotics is ez @ 2025 maker faire orange county - hs: vex v5 robotics competition - push back","code":"RE-V5RC-25-0810"},"division":{"id":1,"name":"Division 1","code":null},"round":2,"instance":1,"matchnum":31,"scheduled":"2025-09-14T14:11:30-04:00","started":null,"field":"Field 6","scored":false,"name":"Qualifier #31","alliances":[{"color":"blue","score":0,"teams":[{"team":{"id":164167,"name":"79793V","code":null},"sitting":false},{"team":{"id":173699,"name":"3050Y","code":null},"sitting":false}]},{"color":"red","score":0,"teams":[{"team":{"id":50480,"name":"6627A","code":null},"sitting":false},{"team":{"id":33301,"name":"404E","code":null},"sitting":false}]}],"updated_at":"2025-09-14T13:50:21-04:00"},{"id":117238418,"event":{"id":60810,"name":"robotics is ez @ 2025 maker faire orange county - hs: vex v5 robotics competition - push back","code":"RE-V5RC-25-0810"},"division":{"id":1,"name":"Division 1","code":null},"round":2,"instance":1,"matchnum":32,"scheduled":"2025-09-14T14:15:53-04:00","started":null,"field":"Field 7","scored":false,"name":"Qualifier #32","alliances":[{"color":"blue","score":0,"teams":[{"team":{"id":142324,"name":"3050W","code":null},"sitting":false},{"team":{"id":154106,"name":"9924X","code":null},"sitting":false}]},{"color":"red","score":0,"teams":[{"team":{"id":35602,"name":"1138B","code":null},"sitting":false},{"team":{"id":185015,"name":"3595V","code":null},"sitting":false}]}],"updated_at":"2025-09-14T13:50:21-04:00"},{"id":117238419,"event":{"id":60810,"name":"robotics is ez @ 2025 maker faire orange county - hs: vex v5 robotics competition - push back","code":"RE-V5RC-25-0810"},"division":{"id":1,"name":"Division 1","code":null},"round":2,"instance":1,"matchnum":33,"scheduled":"2025-09-14T14:20:16-04:00","started":null,"field":"Field 6","scored":false,"name":"Qualifier #33","alliances":[{"color":"blue","score":0,"teams":[{"team":{"id":175446,"name":"50881A","code":null},"sitting":false},{"team":{"id":184828,"name":"1744X","code":null},"sitting":false}]},{"color":"red","score":0,"teams":[{"team":{"id":185108,"name":"334H","code":null},"sitting":false},{"team":{"id":128665,"name":"393D","code":null},"sitting":false}]}],"updated_at":"2025-09-14T13:50:21-04:00"},{"id":117238420,"event":{"id":60810,"name":"robotics is ez @ 2025 maker faire orange county - hs: vex v5 robotics competition - push back","code":"RE-V5RC-25-0810"},"division":{"id":1,"name":"Division 1","code":null},"round":2,"instance":1,"matchnum":34,"scheduled":"2025-09-14T14:24:39-04:00","started":null,"field":"Field 7","scored":false,"name":"Qualifier #34","alliances":[{"color":"blue","score":0,"teams":[{"team":{"id":70487,"name":"21S","code":null},"sitting":false},{"team":{"id":142323,"name":"3050X","code":null},"sitting":false}]},{"color":"red","score":0,"teams":[{"team":{"id":186744,"name":"3577A","code":null},"sitting":false},{"team":{"id":170065,"name":"2397A","code":null},"sitting":false}]}],"updated_at":"2025-09-14T13:50:21-04:00"},{"id":117238421,"event":{"id":60810,"name":"robotics is ez @ 2025 maker faire orange county - hs: vex v5 robotics competition - push back","code":"RE-V5RC-25-0810"},"division":{"id":1,"name":"Division 1","code":null},"round":2,"instance":1,"matchnum":35,"scheduled":"2025-09-14T14:29:02-04:00","started":null,"field":"Field 6","scored":false,"name":"Qualifier #35","alliances":[{"color":"blue","score":0,"teams":[{"team":{"id":153990,"name":"393E","code":null},"sitting":false},{"team":{"id":184662,"name":"41939V","code":null},"sitting":false}]},{"color":"red","score":0,"teams":[{"team":{"id":56152,"name":"2150X","code":null},"sitting":false},{"team":{"id":185134,"name":"334C","code":null},"sitting":false}]}],"updated_at":"2025-09-14T13:50:21-04:00"},{"id":117238422,"event":{"id":60810,"name":"robotics is ez @ 2025 maker faire orange county - hs: vex v5 robotics competition - push back","code":"RE-V5RC-25-0810"},"division":{"id":1,"name":"Division 1","code":null},"round":2,"instance":1,"matchnum":36,"scheduled":"2025-09-14T14:33:25-04:00","started":null,"field":"Field 7","scored":false,"name":"Qualifier #36","alliances":[{"color":"blue","score":0,"teams":[{"team":{"id":169890,"name":"8917B","code":null},"sitting":false},{"team":{"id":185249,"name":"9621V","code":null},"sitting":false}]},{"color":"red","score":0,"teams":[{"team":{"id":154424,"name":"7899X","code":null},"sitting":false},{"team":{"id":142325,"name":"3050V","code":null},"sitting":false}]}],"updated_at":"2025-09-14T13:50:21-04:00"},{"id":117238423,"event":{"id":60810,"name":"robotics is ez @ 2025 maker faire orange county - hs: vex v5 robotics competition - push back","code":"RE-V5RC-25-0810"},"division":{"id":1,"name":"Division 1","code":null},"round":2,"instance":1,"matchnum":37,"scheduled":"2025-09-14T14:37:48-04:00","started":null,"field":"Field 6","scored":false,"name":"Qualifier #37","alliances":[{"color":"blue","score":0,"teams":[{"team":{"id":154186,"name":"334U","code":null},"sitting":false},{"team":{"id":164167,"name":"79793V","code":null},"sitting":false}]},{"color":"red","score":0,"teams":[{"team":{"id":169488,"name":"12125A","code":null},"sitting":false},{"team":{"id":11998,"name":"2150A","code":null},"sitting":false}]}],"updated_at":"2025-09-14T13:50:21-04:00"},{"id":117238424,"event":{"id":60810,"name":"robotics is ez @ 2025 maker faire orange county - hs: vex v5 robotics competition - push back","code":"RE-V5RC-25-0810"},"division":{"id":1,"name":"Division 1","code":null},"round":2,"instance":1,"matchnum":38,"scheduled":"2025-09-14T14:42:11-04:00","started":null,"field":"Field 7","scored":false,"name":"Qualifier #38","alliances":[{"color":"blue","score":0,"teams":[{"team":{"id":50480,"name":"6627A","code":null},"sitting":false},{"team":{"id":169926,"name":"334W","code":null},"sitting":false}]},{"color":"red","score":0,"teams":[{"team":{"id":70368,"name":"2496N","code":null},"sitting":false},{"team":{"id":841,"name":"21C","code":null},"sitting":false}]}],"updated_at":"2025-09-14T13:50:21-04:00"},{"id":117238425,"event":{"id":60810,"name":"robotics is ez @ 2025 maker faire orange county - hs: vex v5 robotics competition - push back","code":"RE-V5RC-25-0810"},"division":{"id":1,"name":"Division 1","code":null},"round":2,"instance":1,"matchnum":39,"scheduled":"2025-09-14T14:46:34-04:00","started":null,"field":"Field 6","scored":false,"name":"Qualifier #39","alliances":[{"color":"blue","score":0,"teams":[{"team":{"id":139680,"name":"6627S","code":null},"sitting":false},{"team":{"id":33301,"name":"404E","code":null},"sitting":false}]},{"color":"red","score":0,"teams":[{"team":{"id":185403,"name":"50881B","code":null},"sitting":false},{"team":{"id":64292,"name":"6627D","code":null},"sitting":false}]}],"updated_at":"2025-09-14T13:50:21-04:00"},{"id":117238426,"event":{"id":60810,"name":"robotics is ez @ 2025 maker faire orange county - hs: vex v5 robotics competition - push back","code":"RE-V5RC-25-0810"},"division":{"id":1,"name":"Division 1","code":null},"round":2,"instance":1,"matchnum":40,"scheduled":"2025-09-14T14:50:57-04:00","started":null,"field":"Field 7","scored":false,"name":"Qualifier #40","alliances":[{"color":"blue","score":0,"teams":[{"team":{"id":172554,"name":"98601C","code":null},"sitting":false},{"team":{"id":122798,"name":"884A","code":null},"sitting":false}]},{"color":"red","score":0,"teams":[{"team":{"id":155333,"name":"2428W","code":null},"sitting":false},{"team":{"id":155496,"name":"7899B","code":null},"sitting":false}]}],"updated_at":"2025-09-14T13:50:21-04:00"},{"id":117238427,"event":{"id":60810,"name":"robotics is ez @ 2025 maker faire orange county - hs: vex v5 robotics competition - push back","code":"RE-V5RC-25-0810"},"division":{"id":1,"name":"Division 1","code":null},"round":2,"instance":1,"matchnum":41,"scheduled":"2025-09-14T14:55:20-04:00","started":null,"field":"Field 6","scored":false,"name":"Qualifier #41","alliances":[{"color":"blue","score":0,"teams":[{"team":{"id":56122,"name":"404S","code":null},"sitting":false},{"team":{"id":128664,"name":"393C","code":null},"sitting":false}]},{"color":"red","score":0,"teams":[{"team":{"id":93708,"name":"6627X","code":null},"sitting":false},{"team":{"id":831,"name":"21A","code":null},"sitting":false}]}],"updated_at":"2025-09-14T13:50:21-04:00"},{"id":117238428,"event":{"id":60810,"name":"robotics is ez @ 2025 maker faire orange county - hs: vex v5 robotics competition - push back","code":"RE-V5RC-25-0810"},"division":{"id":1,"name":"Division 1","code":null},"round":2,"instance":1,"matchnum":42,"scheduled":"2025-09-14T14:59:43-04:00","started":null,"field":"Field 7","scored":false,"name":"Qualifier #42","alliances":[{"color":"blue","score":0,"teams":[{"team":{"id":173699,"name":"3050Y","code":null},"sitting":false},{"team":{"id":185108,"name":"334H","code":null},"sitting":false}]},{"color":"red","score":0,"teams":[{"team":{"id":70487,"name":"21S","code":null},"sitting":false},{"team":{"id":154424,"name":"7899X","code":null},"sitting":false}]}],"updated_at":"2025-09-14T13:50:21-04:00"},{"id":117238429,"event":{"id":60810,"name":"robotics is ez @ 2025 maker faire orange county - hs: vex v5 robotics competition - push back","code":"RE-V5RC-25-0810"},"division":{"id":1,"name":"Division 1","code":null},"round":2,"instance":1,"matchnum":43,"scheduled":"2025-09-14T15:30:00-04:00","started":null,"field":"Field 6","scored":false,"name":"Qualifier #43","alliances":[{"color":"blue","score":0,"teams":[{"team":{"id":11998,"name":"2150A","code":null},"sitting":false},{"team":{"id":186744,"name":"3577A","code":null},"sitting":false}]},{"color":"red","score":0,"teams":[{"team":{"id":70368,"name":"2496N","code":null},"sitting":false},{"team":{"id":35602,"name":"1138B","code":null},"sitting":false}]}],"updated_at":"2025-09-14T13:50:21-04:00"},{"id":117238430,"event":{"id":60810,"name":"robotics is ez @ 2025 maker faire orange county - hs: vex v5 robotics competition - push back","code":"RE-V5RC-25-0810"},"division":{"id":1,"name":"Division 1","code":null},"round":2,"instance":1,"matchnum":44,"scheduled":"2025-09-14T15:33:50-04:00","started":null,"field":"Field 7","scored":false,"name":"Qualifier #44","alliances":[{"color":"blue","score":0,"teams":[{"team":{"id":142325,"name":"3050V","code":null},"sitting":false},{"team":{"id":184662,"name":"41939V","code":null},"sitting":false}]},{"color":"red","score":0,"teams":[{"team":{"id":142324,"name":"3050W","code":null},"sitting":false},{"team":{"id":33301,"name":"404E","code":null},"sitting":false}]}],"updated_at":"2025-09-14T13:50:21-04:00"},{"id":117238431,"event":{"id":60810,"name":"robotics is ez @ 2025 maker faire orange county - hs: vex v5 robotics competition - push back","code":"RE-V5RC-25-0810"},"division":{"id":1,"name":"Division 1","code":null},"round":2,"instance":1,"matchnum":45,"scheduled":"2025-09-14T15:37:40-04:00","started":null,"field":"Field 6","scored":false,"name":"Qualifier #45","alliances":[{"color":"blue","score":0,"teams":[{"team":{"id":169890,"name":"8917B","code":null},"sitting":false},{"team":{"id":172554,"name":"98601C","code":null},"sitting":false}]},{"color":"red","score":0,"teams":[{"team":{"id":50480,"name":"6627A","code":null},"sitting":false},{"team":{"id":185134,"name":"334C","code":null},"sitting":false}]}],"updated_at":"2025-09-14T13:50:21-04:00"},{"id":117238432,"event":{"id":60810,"name":"robotics is ez @ 2025 maker faire orange county - hs: vex v5 robotics competition - push back","code":"RE-V5RC-25-0810"},"division":{"id":1,"name":"Division 1","code":null},"round":2,"instance":1,"matchnum":46,"scheduled":"2025-09-14T15:41:30-04:00","started":null,"field":"Field 7","scored":false,"name":"Qualifier #46","alliances":[{"color":"blue","score":0,"teams":[{"team":{"id":155333,"name":"2428W","code":null},"sitting":false},{"team":{"id":153990,"name":"393E","code":null},"sitting":false}]},{"color":"red","score":0,"teams":[{"team":{"id":170065,"name":"2397A","code":null},"sitting":false},{"team":{"id":56122,"name":"404S","code":null},"sitting":false}]}],"updated_at":"2025-09-14T13:50:21-04:00"},{"id":117238433,"event":{"id":60810,"name":"robotics is ez @ 2025 maker faire orange county - hs: vex v5 robotics competition - push back","code":"RE-V5RC-25-0810"},"division":{"id":1,"name":"Division 1","code":null},"round":2,"instance":1,"matchnum":47,"scheduled":"2025-09-14T15:45:20-04:00","started":null,"field":"Field 6","scored":false,"name":"Qualifier #47","alliances":[{"color":"blue","score":0,"teams":[{"team":{"id":164167,"name":"79793V","code":null},"sitting":false},{"team":{"id":64292,"name":"6627D","code":null},"sitting":false}]},{"color":"red","score":0,"teams":[{"team":{"id":128664,"name":"393C","code":null},"sitting":false},{"team":{"id":169926,"name":"334W","code":null},"sitting":false}]}],"updated_at":"2025-09-14T13:50:21-04:00"},{"id":117238434,"event":{"id":60810,"name":"robotics is ez @ 2025 maker faire orange county - hs: vex v5 robotics competition - push back","code":"RE-V5RC-25-0810"},"division":{"id":1,"name":"Division 1","code":null},"round":2,"instance":1,"matchnum":48,"scheduled":"2025-09-14T15:49:10-04:00","started":null,"field":"Field 7","scored":false,"name":"Qualifier #48","alliances":[{"color":"blue","score":0,"teams":[{"team":{"id":128665,"name":"393D","code":null},"sitting":false},{"team":{"id":155496,"name":"7899B","code":null},"sitting":false}]},{"color":"red","score":0,"teams":[{"team":{"id":142323,"name":"3050X","code":null},"sitting":false},{"team":{"id":841,"name":"21C","code":null},"sitting":false}]}],"updated_at":"2025-09-14T13:50:21-04:00"},{"id":117238435,"event":{"id":60810,"name":"robotics is ez @ 2025 maker faire orange county - hs: vex v5 robotics competition - push back","code":"RE-V5RC-25-0810"},"division":{"id":1,"name":"Division 1","code":null},"round":2,"instance":1,"matchnum":49,"scheduled":"2025-09-14T15:53:00-04:00","started":null,"field":"Field 6","scored":false,"name":"Qualifier #49","alliances":[{"color":"blue","score":0,"teams":[{"team":{"id":139680,"name":"6627S","code":null},"sitting":false},{"team":{"id":185015,"name":"3595V","code":null},"sitting":false}]},{"color":"red","score":0,"teams":[{"team":{"id":184828,"name":"1744X","code":null},"sitting":false},{"team":{"id":169488,"name":"12125A","code":null},"sitting":false}]}],"updated_at":"2025-09-14T13:50:21-04:00"},{"id":117238436,"event":{"id":60810,"name":"robotics is ez @ 2025 maker faire orange county - hs: vex v5 robotics competition - push back","code":"RE-V5RC-25-0810"},"division":{"id":1,"name":"Division 1","code":null},"round":2,"instance":1,"matchnum":50,"scheduled":"2025-09-14T15:56:50-04:00","started":null,"field":"Field 7","scored":false,"name":"Qualifier #50","alliances":[{"color":"blue","score":0,"teams":[{"team":{"id":154186,"name":"334U","code":null},"sitting":false},{"team":{"id":154106,"name":"9924X","code":null},"sitting":false}]},{"color":"red","score":0,"teams":[{"team":{"id":93708,"name":"6627X","code":null},"sitting":false},{"team":{"id":56152,"name":"2150X","code":null},"sitting":false}]}],"updated_at":"2025-09-14T13:50:21-04:00"},{"id":117238437,"event":{"id":60810,"name":"robotics is ez @ 2025 maker faire orange county - hs: vex v5 robotics competition - push back","code":"RE-V5RC-25-0810"},"division":{"id":1,"name":"Division 1","code":null},"round":2,"instance":1,"matchnum":51,"scheduled":"2025-09-14T16:00:40-04:00","started":null,"field":"Field 6","scored":false,"name":"Qualifier #51","alliances":[{"color":"blue","score":0,"teams":[{"team":{"id":831,"name":"21A","code":null},"sitting":false},{"team":{"id":122798,"name":"884A","code":null},"sitting":false}]},{"color":"red","score":0,"teams":[{"team":{"id":185249,"name":"9621V","code":null},"sitting":false},{"team":{"id":175446,"name":"50881A","code":null},"sitting":false}]}],"updated_at":"2025-09-14T13:50:21-04:00"},{"id":117238438,"event":{"id":60810,"name":"robotics is ez @ 2025 maker faire orange county - hs: vex v5 robotics competition - push back","code":"RE-V5RC-25-0810"},"division":{"id":1,"name":"Division 1","code":null},"round":2,"instance":1,"matchnum":52,"scheduled":"2025-09-14T16:04:30-04:00","started":null,"field":"Field 7","scored":false,"name":"Qualifier #52","alliances":[{"color":"blue","score":0,"teams":[{"team":{"id":185403,"name":"50881B","code":null},"sitting":false},{"team":{"id":50480,"name":"6627A","code":null},"sitting":false}]},{"color":"red","score":0,"teams":[{"team":{"id":185108,"name":"334H","code":null},"sitting":false},{"team":{"id":184662,"name":"41939V","code":null},"sitting":false}]}],"updated_at":"2025-09-14T13:50:21-04:00"},{"id":117238439,"event":{"id":60810,"name":"robotics is ez @ 2025 maker faire orange county - hs: vex v5 robotics competition - push back","code":"RE-V5RC-25-0810"},"division":{"id":1,"name":"Division 1","code":null},"round":2,"instance":1,"matchnum":53,"scheduled":"2025-09-14T16:08:20-04:00","started":null,"field":"Field 6","scored":false,"name":"Qualifier #53","alliances":[{"color":"blue","score":0,"teams":[{"team":{"id":128664,"name":"393C","code":null},"sitting":false},{"team":{"id":142324,"name":"3050W","code":null},"sitting":false}]},{"color":"red","score":0,"teams":[{"team":{"id":142323,"name":"3050X","code":null},"sitting":false},{"team":{"id":11998,"name":"2150A","code":null},"sitting":false}]}],"updated_at":"2025-09-14T13:50:21-04:00"},{"id":117238440,"event":{"id":60810,"name":"robotics is ez @ 2025 maker faire orange county - hs: vex v5 robotics competition - push back","code":"RE-V5RC-25-0810"},"division":{"id":1,"name":"Division 1","code":null},"round":2,"instance":1,"matchnum":54,"scheduled":"2025-09-14T16:12:10-04:00","started":null,"field":"Field 7","scored":false,"name":"Qualifier #54","alliances":[{"color":"blue","score":0,"teams":[{"team":{"id":33301,"name":"404E","code":null},"sitting":false},{"team":{"id":70368,"name":"2496N","code":null},"sitting":false}]},{"color":"red","score":0,"teams":[{"team":{"id":184828,"name":"1744X","code":null},"sitting":false},{"team":{"id":56122,"name":"404S","code":null},"sitting":false}]}],"updated_at":"2025-09-14T13:50:21-04:00"},{"id":117238441,"event":{"id":60810,"name":"robotics is ez @ 2025 maker faire orange county - hs: vex v5 robotics competition - push back","code":"RE-V5RC-25-0810"},"division":{"id":1,"name":"Division 1","code":null},"round":2,"instance":1,"matchnum":55,"scheduled":"2025-09-14T16:16:00-04:00","started":null,"field":"Field 6","scored":false,"name":"Qualifier #55","alliances":[{"color":"blue","score":0,"teams":[{"team":{"id":185015,"name":"3595V","code":null},"sitting":false},{"team":{"id":153990,"name":"393E","code":null},"sitting":false}]},{"color":"red","score":0,"teams":[{"team":{"id":154186,"name":"334U","code":null},"sitting":false},{"team":{"id":169890,"name":"8917B","code":null},"sitting":false}]}],"updated_at":"2025-09-14T13:50:21-04:00"},{"id":117238442,"event":{"id":60810,"name":"robotics is ez @ 2025 maker faire orange county - hs: vex v5 robotics competition - push back","code":"RE-V5RC-25-0810"},"division":{"id":1,"name":"Division 1","code":null},"round":2,"instance":1,"matchnum":56,"scheduled":"2025-09-14T16:19:50-04:00","started":null,"field":"Field 7","scored":false,"name":"Qualifier #56","alliances":[{"color":"blue","score":0,"teams":[{"team":{"id":93708,"name":"6627X","code":null},"sitting":false},{"team":{"id":35602,"name":"1138B","code":null},"sitting":false}]},{"color":"red","score":0,"teams":[{"team":{"id":173699,"name":"3050Y","code":null},"sitting":false},{"team":{"id":172554,"name":"98601C","code":null},"sitting":false}]}],"updated_at":"2025-09-14T13:50:21-04:00"},{"id":117238443,"event":{"id":60810,"name":"robotics is ez @ 2025 maker faire orange county - hs: vex v5 robotics competition - push back","code":"RE-V5RC-25-0810"},"division":{"id":1,"name":"Division 1","code":null},"round":2,"instance":1,"matchnum":57,"scheduled":"2025-09-14T16:23:40-04:00","started":null,"field":"Field 6","scored":false,"name":"Qualifier #57","alliances":[{"color":"blue","score":0,"teams":[{"team":{"id":185134,"name":"334C","code":null},"sitting":false},{"team":{"id":185403,"name":"50881B","code":null},"sitting":false}]},{"color":"red","score":0,"teams":[{"team":{"id":170065,"name":"2397A","code":null},"sitting":false},{"team":{"id":169926,"name":"334W","code":null},"sitting":false}]}],"updated_at":"2025-09-14T13:50:21-04:00"},{"id":117238444,"event":{"id":60810,"name":"robotics is ez @ 2025 maker faire orange county - hs: vex v5 robotics competition - push back","code":"RE-V5RC-25-0810"},"division":{"id":1,"name":"Division 1","code":null},"round":2,"instance":1,"matchnum":58,"scheduled":"2025-09-14T16:27:30-04:00","started":null,"field":"Field 7","scored":false,"name":"Qualifier #58","alliances":[{"color":"blue","score":0,"teams":[{"team":{"id":154424,"name":"7899X","code":null},"sitting":false},{"team":{"id":128665,"name":"393D","code":null},"sitting":false}]},{"color":"red","score":0,"teams":[{"team":{"id":122798,"name":"884A","code":null},"sitting":false},{"team":{"id":164167,"name":"79793V","code":null},"sitting":false}]}],"updated_at":"2025-09-14T13:50:21-04:00"},{"id":117238445,"event":{"id":60810,"name":"robotics is ez @ 2025 maker faire orange county - hs: vex v5 robotics competition - push back","code":"RE-V5RC-25-0810"},"division":{"id":1,"name":"Division 1","code":null},"round":2,"instance":1,"matchnum":59,"scheduled":"2025-09-14T16:31:20-04:00","started":null,"field":"Field 6","scored":false,"name":"Qualifier #59","alliances":[{"color":"blue","score":0,"teams":[{"team":{"id":56152,"name":"2150X","code":null},"sitting":false},{"team":{"id":841,"name":"21C","code":null},"sitting":false}]},{"color":"red","score":0,"teams":[{"team":{"id":175446,"name":"50881A","code":null},"sitting":false},{"team":{"id":70487,"name":"21S","code":null},"sitting":false}]}],"updated_at":"2025-09-14T13:50:21-04:00"},{"id":117238446,"event":{"id":60810,"name":"robotics is ez @ 2025 maker faire orange county - hs: vex v5 robotics competition - push back","code":"RE-V5RC-25-0810"},"division":{"id":1,"name":"Division 1","code":null},"round":2,"instance":1,"matchnum":60,"scheduled":"2025-09-14T16:35:10-04:00","started":null,"field":"Field 7","scored":false,"name":"Qualifier #60","alliances":[{"color":"blue","score":0,"teams":[{"team":{"id":155496,"name":"7899B","code":null},"sitting":false},{"team":{"id":186744,"name":"3577A","code":null},"sitting":false}]},{"color":"red","score":0,"teams":[{"team":{"id":142325,"name":"3050V","code":null},"sitting":false},{"team":{"id":139680,"name":"6627S","code":null},"sitting":false}]}],"updated_at":"2025-09-14T13:50:21-04:00"},{"id":117238447,"event":{"id":60810,"name":"robotics is ez @ 2025 maker faire orange county - hs: vex v5 robotics competition - push back","code":"RE-V5RC-25-0810"},"division":{"id":1,"name":"Division 1","code":null},"round":2,"instance":1,"matchnum":61,"scheduled":"2025-09-14T16:39:00-04:00","started":null,"field":"Field 6","scored":false,"name":"Qualifier #61","alliances":[{"color":"blue","score":0,"teams":[{"team":{"id":169488,"name":"12125A","code":null},"sitting":false},{"team":{"id":64292,"name":"6627D","code":null},"sitting":false}]},{"color":"red","score":0,"teams":[{"team":{"id":154106,"name":"9924X","code":null},"sitting":false},{"team":{"id":831,"name":"21A","code":null},"sitting":false}]}],"updated_at":"2025-09-14T13:50:21-04:00"},{"id":117238448,"event":{"id":60810,"name":"robotics is ez @ 2025 maker faire orange county - hs: vex v5 robotics competition - push back","code":"RE-V5RC-25-0810"},"division":{"id":1,"name":"Division 1","code":null},"round":2,"instance":1,"matchnum":62,"scheduled":"2025-09-14T16:42:50-04:00","started":null,"field":"Field 7","scored":false,"name":"Qualifier #62","alliances":[{"color":"blue","score":0,"teams":[{"team":{"id":50480,"name":"6627A","code":null},"sitting":false},{"team":{"id":154186,"name":"334U","code":null},"sitting":false}]},{"color":"red","score":0,"teams":[{"team":{"id":155333,"name":"2428W","code":null},"sitting":false},{"team":{"id":185249,"name":"9621V","code":null},"sitting":false}]}],"updated_at":"2025-09-14T13:50:21-04:00"}]}}},{"id":"/teams/831","value":{"url":"/teams/831","created":"2025-09-14T17:53:13.344Z","data":{"id":831,"number":"21A","team_name":"SPUR-FLYS","robot_name":"","organization":"CHAMPS - CHARTER HIGH SCHOOL OF ARTS-MULTIMEDIA & PERFORMING","location":{"venue":null,"address_1":"","address_2":null,"city":"Van Nuys","region":"California","postcode":"91405","country":"United States","coordinates":{"lat":34.2,"lon":-118.4}},"registered":true,"program":{"id":1,"name":"VEX V5 Robotics Competition","code":"V5RC"},"grade":"High School"}}},{"id":"/teams/185108","value":{"url":"/teams/185108","created":"2025-09-14T17:53:13.422Z","data":{"id":185108,"number":"334H","team_name":"Supernova Hyperspeeders","robot_name":"","organization":"SCIENCE ACADEMY STEM MAGNET","location":{"venue":null,"address_1":"","address_2":null,"city":"North Hollywood","region":"California","postcode":"91601","country":"United States","coordinates":{"lat":34.2,"lon":-118.4}},"registered":true,"program":{"id":1,"name":"VEX V5 Robotics Competition","code":"V5RC"},"grade":"High School"}}},{"id":"/teams/154186","value":{"url":"/teams/154186","created":"2025-09-14T17:53:13.377Z","data":{"id":154186,"number":"334U","team_name":"Supernova Redeem","robot_name":"Gustavo","organization":"SCIENCE ACADEMY STEM MAGNET","location":{"venue":null,"address_1":"","address_2":null,"city":"North Hollywood","region":"California","postcode":"91601","country":"United States","coordinates":{"lat":34.2,"lon":-118.4}},"registered":true,"program":{"id":1,"name":"VEX V5 Robotics Competition","code":"V5RC"},"grade":"High School"}}},{"id":"/teams/70487","value":{"url":"/teams/70487","created":"2025-09-14T17:53:13.325Z","data":{"id":70487,"number":"21S","team_name":"SPUR-FLYS","robot_name":"","organization":"CHAMPS - CHARTER HIGH SCHOOL OF ARTS-MULTIMEDIA & PERFORMING","location":{"venue":null,"address_1":"","address_2":null,"city":"Van Nuys","region":"California","postcode":"91405","country":"United States","coordinates":{"lat":34.2,"lon":-118.4}},"registered":true,"program":{"id":1,"name":"VEX V5 Robotics Competition","code":"V5RC"},"grade":"High School"}}},{"id":"/teams/128665","value":{"url":"/teams/128665","created":"2025-09-14T17:53:13.382Z","data":{"id":128665,"number":"393D","team_name":"Legacy Robotics","robot_name":"","organization":"Legacy Magnet Academy","location":{"venue":null,"address_1":"","address_2":null,"city":"Tustin","region":"California","postcode":"92782","country":"United States","coordinates":{"lat":33.7,"lon":-117.8}},"registered":true,"program":{"id":1,"name":"VEX V5 Robotics Competition","code":"V5RC"},"grade":"High School"}}},{"id":"/teams/185134","value":{"url":"/teams/185134","created":"2025-09-14T17:53:13.384Z","data":{"id":185134,"number":"334C","team_name":"Supernova Chimera","robot_name":"","organization":"SCIENCE ACADEMY STEM MAGNET","location":{"venue":null,"address_1":"","address_2":null,"city":"North Hollywood","region":"California","postcode":"91601","country":"United States","coordinates":{"lat":34.2,"lon":-118.4}},"registered":true,"program":{"id":1,"name":"VEX V5 Robotics Competition","code":"V5RC"},"grade":"High School"}}},{"id":"/teams/841","value":{"url":"/teams/841","created":"2025-09-14T17:53:13.433Z","data":{"id":841,"number":"21C","team_name":"SPUR-FLYS","robot_name":"","organization":"CHAMPS - CHARTER HIGH SCHOOL OF ARTS-MULTIMEDIA & PERFORMING","location":{"venue":null,"address_1":"","address_2":null,"city":"Van Nuys","region":"California","postcode":"91405","country":"United States","coordinates":{"lat":34.2,"lon":-118.4}},"registered":true,"program":{"id":1,"name":"VEX V5 Robotics Competition","code":"V5RC"},"grade":"High School"}}},{"id":"/teams/169926","value":{"url":"/teams/169926","created":"2025-09-14T17:53:13.413Z","data":{"id":169926,"number":"334W","team_name":"Supernova W","robot_name":"","organization":"SCIENCE ACADEMY STEM MAGNET","location":{"venue":null,"address_1":"","address_2":null,"city":"North Hollywood","region":"California","postcode":"91601","country":"United States","coordinates":{"lat":34.2,"lon":-118.4}},"registered":true,"program":{"id":1,"name":"VEX V5 Robotics Competition","code":"V5RC"},"grade":"High School"}}},{"id":"/teams/56122","value":{"url":"/teams/56122","created":"2025-09-14T17:53:13.418Z","data":{"id":56122,"number":"404S","team_name":"Sticky Keys Enabled","robot_name":"","organization":"EL CAMINO REAL CHARTER HIGH SCHOOL","location":{"venue":null,"address_1":"","address_2":null,"city":"Woodland Hills","region":"California","postcode":"91367","country":"United States","coordinates":{"lat":34.2,"lon":-118.6}},"registered":true,"program":{"id":1,"name":"VEX V5 Robotics Competition","code":"V5RC"},"grade":"High School"}}},{"id":"/teams/128664","value":{"url":"/teams/128664","created":"2025-09-14T17:53:13.396Z","data":{"id":128664,"number":"393C","team_name":"Legacy Robotics","robot_name":"","organization":"Legacy Magnet Academy","location":{"venue":null,"address_1":"","address_2":null,"city":"Tustin","region":"California","postcode":"92782","country":"United States","coordinates":{"lat":33.7,"lon":-117.8}},"registered":true,"program":{"id":1,"name":"VEX V5 Robotics Competition","code":"V5RC"},"grade":"High School"}}},{"id":"/teams/33301","value":{"url":"/teams/33301","created":"2025-09-14T17:53:13.412Z","data":{"id":33301,"number":"404E","team_name":"Bot Not Found","robot_name":"","organization":"ELEMENTARY SCHOOL CAMINO REAL CHARTER HIGH","location":{"venue":null,"address_1":"","address_2":null,"city":"Woodland Hills","region":"California","postcode":"91367","country":"United States","coordinates":{"lat":34.2,"lon":-118.6}},"registered":true,"program":{"id":1,"name":"VEX V5 Robotics Competition","code":"V5RC"},"grade":"High School"}}},{"id":"/teams/153990","value":{"url":"/teams/153990","created":"2025-09-14T17:53:13.427Z","data":{"id":153990,"number":"393E","team_name":"Expedite","robot_name":"","organization":"Legacy Magnet Academy","location":{"venue":null,"address_1":"","address_2":null,"city":"Tustin","region":"California","postcode":"92782","country":"United States","coordinates":{"lat":33.7,"lon":-117.8}},"registered":true,"program":{"id":1,"name":"VEX V5 Robotics Competition","code":"V5RC"},"grade":"High School"}}},{"id":"/teams/184828","value":{"url":"/teams/184828","created":"2025-09-14T17:53:13.644Z","data":{"id":184828,"number":"1744X","team_name":"Xplosion","robot_name":"Boom","organization":"North Hollywood STEM Magnet","location":{"venue":null,"address_1":"","address_2":null,"city":"North Hollywood","region":"California","postcode":"91601","country":"United States","coordinates":{"lat":34.2,"lon":-118.4}},"registered":true,"program":{"id":1,"name":"VEX V5 Robotics Competition","code":"V5RC"},"grade":"High School"}}},{"id":"/teams/122798","value":{"url":"/teams/122798","created":"2025-09-14T17:53:13.425Z","data":{"id":122798,"number":"884A","team_name":"Space Pandas","robot_name":"","organization":"Bamboo Lab","location":{"venue":null,"address_1":"","address_2":null,"city":"Manhattan Beach","region":"California","postcode":"90266","country":"United States","coordinates":{"lat":33.9,"lon":-118.4}},"registered":true,"program":{"id":1,"name":"VEX V5 Robotics Competition","code":"V5RC"},"grade":"High School"}}},{"id":"/teams/170065","value":{"url":"/teams/170065","created":"2025-09-14T17:53:13.435Z","data":{"id":170065,"number":"2397A","team_name":"Frequency","robot_name":"","organization":"Frequency","location":{"venue":null,"address_1":"","address_2":null,"city":"Santa Ana","region":"California","postcode":"92705","country":"United States","coordinates":{"lat":33.8,"lon":-117.8}},"registered":true,"program":{"id":1,"name":"VEX V5 Robotics Competition","code":"V5RC"},"grade":"High School"}}},{"id":"/teams/35602","value":{"url":"/teams/35602","created":"2025-09-14T17:53:13.453Z","data":{"id":35602,"number":"1138B","team_name":"Eagle Engineering Bravo","robot_name":"TBD","organization":"CHAMINADE COLLEGE PREPARATORY HIGH SCHOOL","location":{"venue":null,"address_1":"","address_2":null,"city":"West Hills","region":"California","postcode":"91304","country":"United States","coordinates":{"lat":34.2,"lon":-118.6}},"registered":true,"program":{"id":1,"name":"VEX V5 Robotics Competition","code":"V5RC"},"grade":"High School"}}},{"id":"/teams/155333","value":{"url":"/teams/155333","created":"2025-09-14T17:53:13.603Z","data":{"id":155333,"number":"2428W","team_name":"9 lives","robot_name":"","organization":"Fell Swoop Inc","location":{"venue":null,"address_1":"","address_2":null,"city":"Los Angeles","region":"California","postcode":"90046","country":"United States","coordinates":{"lat":34.1,"lon":-118.4}},"registered":true,"program":{"id":1,"name":"VEX V5 Robotics Competition","code":"V5RC"},"grade":"High School"}}},{"id":"/teams/70368","value":{"url":"/teams/70368","created":"2025-09-14T17:53:13.447Z","data":{"id":70368,"number":"2496N","team_name":"Beckman Robotics Nemesis","robot_name":"","organization":"Arnold O. Beckman High School","location":{"venue":null,"address_1":"","address_2":null,"city":"Irvine","region":"California","postcode":"92602","country":"United States","coordinates":{"lat":33.7,"lon":-117.8}},"registered":true,"program":{"id":1,"name":"VEX V5 Robotics Competition","code":"V5RC"},"grade":"High School"}}},{"id":"/teams/56152","value":{"url":"/teams/56152","created":"2025-09-14T17:53:13.519Z","data":{"id":56152,"number":"2150X","team_name":"Exabyte - Chadwick School","robot_name":"","organization":"Chadwick School","location":{"venue":null,"address_1":"","address_2":null,"city":"Palos Verdes Peninsula","region":"California","postcode":"90274","country":"United States","coordinates":{"lat":33.8,"lon":-118.4}},"registered":true,"program":{"id":1,"name":"VEX V5 Robotics Competition","code":"V5RC"},"grade":"High School"}}},{"id":"/teams/142324","value":{"url":"/teams/142324","created":"2025-09-14T17:53:13.547Z","data":{"id":142324,"number":"3050W","team_name":"Peninsula High School Wildcard","robot_name":"Peninsula","organization":"PALOS VERDES PENINSULA HIGH","location":{"venue":null,"address_1":"","address_2":null,"city":"Rolling Hills","region":"California","postcode":"90274","country":"United States","coordinates":{"lat":33.8,"lon":-118.4}},"registered":true,"program":{"id":1,"name":"VEX V5 Robotics Competition","code":"V5RC"},"grade":"High School"}}},{"id":"/teams/142323","value":{"url":"/teams/142323","created":"2025-09-14T17:53:13.608Z","data":{"id":142323,"number":"3050X","team_name":"Peninsula High School Xiphos","robot_name":"","organization":"PALOS VERDES PENINSULA HIGH","location":{"venue":null,"address_1":"","address_2":null,"city":"Rolling Hills","region":"California","postcode":"90274","country":"United States","coordinates":{"lat":33.8,"lon":-118.4}},"registered":true,"program":{"id":1,"name":"VEX V5 Robotics Competition","code":"V5RC"},"grade":"High School"}}},{"id":"/teams/185015","value":{"url":"/teams/185015","created":"2025-09-14T17:53:13.555Z","data":{"id":185015,"number":"3595V","team_name":"Vortex","robot_name":"Cherry Coke","organization":"Irvine Area Robotics","location":{"venue":null,"address_1":"","address_2":null,"city":"Tustin","region":"California","postcode":"92782","country":"United States","coordinates":{"lat":33.7,"lon":-117.8}},"registered":true,"program":{"id":1,"name":"VEX V5 Robotics Competition","code":"V5RC"},"grade":"High School"}}},{"id":"/teams/64292","value":{"url":"/teams/64292","created":"2025-09-14T17:53:13.638Z","data":{"id":64292,"number":"6627D","team_name":"Knight Time Bots - Dragons","robot_name":"","organization":"FOOTHILL HIGH","location":{"venue":null,"address_1":"","address_2":null,"city":"Santa Ana","region":"California","postcode":"92705","country":"United States","coordinates":{"lat":33.8,"lon":-117.8}},"registered":true,"program":{"id":1,"name":"VEX V5 Robotics Competition","code":"V5RC"},"grade":"High School"}}},{"id":"/teams/154424","value":{"url":"/teams/154424","created":"2025-09-14T17:53:13.612Z","data":{"id":154424,"number":"7899X","team_name":"Rolling Robots Sting Rays","robot_name":"","organization":"Rolling Robots","location":{"venue":null,"address_1":"","address_2":null,"city":"Irvine","region":"California","postcode":"92620","country":"United States","coordinates":{"lat":33.7,"lon":-117.8}},"registered":true,"program":{"id":1,"name":"VEX V5 Robotics Competition","code":"V5RC"},"grade":"High School"}}},{"id":"/teams/173699","value":{"url":"/teams/173699","created":"2025-09-14T17:53:13.617Z","data":{"id":173699,"number":"3050Y","team_name":"Peninsula High School Y Team","robot_name":"","organization":"PALOS VERDES PENINSULA HIGH","location":{"venue":null,"address_1":"","address_2":null,"city":"Roling Hills Est","region":"California","postcode":"90274","country":"United States","coordinates":{"lat":33.8,"lon":-118.4}},"registered":true,"program":{"id":1,"name":"VEX V5 Robotics Competition","code":"V5RC"},"grade":"High School"}}},{"id":"/teams/50480","value":{"url":"/teams/50480","created":"2025-09-14T17:53:13.594Z","data":{"id":50480,"number":"6627A","team_name":"Knight Time Bots - Ace","robot_name":"ACE","organization":"FOOTHILL HIGH","location":{"venue":null,"address_1":"","address_2":null,"city":"Santa Ana","region":"California","postcode":"92705","country":"United States","coordinates":{"lat":33.8,"lon":-117.8}},"registered":true,"program":{"id":1,"name":"VEX V5 Robotics Competition","code":"V5RC"},"grade":"High School"}}},{"id":"/teams/11998","value":{"url":"/teams/11998","created":"2025-09-14T17:53:13.647Z","data":{"id":11998,"number":"2150A","team_name":"Ratio - Chadwick School","robot_name":"","organization":"CHADWICK SCHOOL","location":{"venue":null,"address_1":"","address_2":null,"city":"Palos Verdes Peninsula","region":"California","postcode":"90274","country":"United States","coordinates":{"lat":33.8,"lon":-118.4}},"registered":true,"program":{"id":1,"name":"VEX V5 Robotics Competition","code":"V5RC"},"grade":"High School"}}},{"id":"/teams/185403","value":{"url":"/teams/185403","created":"2025-09-14T17:53:13.630Z","data":{"id":185403,"number":"50881B","team_name":"TechnoDREAM","robot_name":"TBD","organization":"TechnoDREAM","location":{"venue":null,"address_1":"","address_2":null,"city":"Irvine","region":"California","postcode":"92620","country":"United States","coordinates":{"lat":33.7,"lon":-117.8}},"registered":true,"program":{"id":1,"name":"VEX V5 Robotics Competition","code":"V5RC"},"grade":"High School"}}},{"id":"/teams/185249","value":{"url":"/teams/185249","created":"2025-09-14T17:53:13.620Z","data":{"id":185249,"number":"9621V","team_name":"Void","robot_name":"Quasar I","organization":"First Principles Robotics Group","location":{"venue":null,"address_1":"","address_2":null,"city":"Las Vegas","region":"Nevada","postcode":"89141","country":"United States","coordinates":{"lat":36,"lon":-115.2}},"registered":true,"program":{"id":1,"name":"VEX V5 Robotics Competition","code":"V5RC"},"grade":"High School"}}},{"id":"/teams/155496","value":{"url":"/teams/155496","created":"2025-09-14T17:53:13.627Z","data":{"id":155496,"number":"7899B","team_name":"Rolling Robots - Sharks","robot_name":"","organization":"Rolling Robots","location":{"venue":null,"address_1":"","address_2":null,"city":"Irvine","region":"California","postcode":"92620","country":"United States","coordinates":{"lat":33.7,"lon":-117.8}},"registered":true,"program":{"id":1,"name":"VEX V5 Robotics Competition","code":"V5RC"},"grade":"High School"}}},{"id":"/teams/164167","value":{"url":"/teams/164167","created":"2025-09-14T17:53:13.641Z","data":{"id":164167,"number":"79793V","team_name":"RoboPirates","robot_name":"","organization":"MAGNOLIA SCIENCE ACADEMY SANTA ANA","location":{"venue":null,"address_1":"","address_2":null,"city":"Santa Ana","region":"California","postcode":"92703","country":"United States","coordinates":{"lat":33.7,"lon":-117.9}},"registered":true,"program":{"id":1,"name":"VEX V5 Robotics Competition","code":"V5RC"},"grade":"High School"}}},{"id":"/teams/142325","value":{"url":"/teams/142325","created":"2025-09-14T17:53:13.678Z","data":{"id":142325,"number":"3050V","team_name":"Peninsula High School Vroom","robot_name":"Smallfry","organization":"PALOS VERDES PENINSULA HIGH","location":{"venue":null,"address_1":"","address_2":null,"city":"Roling Hills Est","region":"California","postcode":"90274","country":"United States","coordinates":{"lat":33.8,"lon":-118.4}},"registered":true,"program":{"id":1,"name":"VEX V5 Robotics Competition","code":"V5RC"},"grade":"High School"}}},{"id":"/teams/175446","value":{"url":"/teams/175446","created":"2025-09-14T17:53:13.676Z","data":{"id":175446,"number":"50881A","team_name":"TechnoDREAM","robot_name":"TBD","organization":"TechnoDREAM","location":{"venue":null,"address_1":"","address_2":null,"city":"Irvine","region":"California","postcode":"92620","country":"United States","coordinates":{"lat":33.7,"lon":-117.8}},"registered":true,"program":{"id":1,"name":"VEX V5 Robotics Competition","code":"V5RC"},"grade":"High School"}}},{"id":"/teams/169890","value":{"url":"/teams/169890","created":"2025-09-14T17:53:13.628Z","data":{"id":169890,"number":"8917B","team_name":"Armageddon","robot_name":"mingle master","organization":"Independent Organization","location":{"venue":null,"address_1":"","address_2":null,"city":"Irvine","region":"California","postcode":"90630","country":"United States","coordinates":{"lat":33.7,"lon":-117.8}},"registered":true,"program":{"id":1,"name":"VEX V5 Robotics Competition","code":"V5RC"},"grade":"High School"}}},{"id":"/teams/169488","value":{"url":"/teams/169488","created":"2025-09-14T17:53:13.640Z","data":{"id":169488,"number":"12125A","team_name":"Sublime","robot_name":"Bubba V3","organization":"Sublime Robotics","location":{"venue":null,"address_1":"","address_2":null,"city":"Irvine","region":"California","postcode":"92602","country":"United States","coordinates":{"lat":33.7,"lon":-117.8}},"registered":true,"program":{"id":1,"name":"VEX V5 Robotics Competition","code":"V5RC"},"grade":"High School"}}},{"id":"/teams/186744","value":{"url":"/teams/186744","created":"2025-09-14T17:53:13.669Z","data":{"id":186744,"number":"3577A","team_name":"DogeBotics","robot_name":"","organization":"Innovagine Robotics","location":{"venue":null,"address_1":"","address_2":null,"city":"Rch Cucamonga","region":"California","postcode":"91730","country":"United States","coordinates":{"lat":34.1,"lon":-117.6}},"registered":true,"program":{"id":1,"name":"VEX V5 Robotics Competition","code":"V5RC"},"grade":"High School"}}},{"id":"/teams/184662","value":{"url":"/teams/184662","created":"2025-09-14T17:53:13.649Z","data":{"id":184662,"number":"41939V","team_name":"ROKKR","robot_name":"","organization":"ROKKR","location":{"venue":null,"address_1":"","address_2":null,"city":"Arcadia","region":"California","postcode":"91007","country":"United States","coordinates":{"lat":34.1,"lon":-118}},"registered":true,"program":{"id":1,"name":"VEX V5 Robotics Competition","code":"V5RC"},"grade":"High School"}}},{"id":"/teams/93708","value":{"url":"/teams/93708","created":"2025-09-14T17:53:13.635Z","data":{"id":93708,"number":"6627X","team_name":"Knight Time Bots - Xenoceratops","robot_name":"Xenoceratops","organization":"FOOTHILL HIGH","location":{"venue":null,"address_1":"","address_2":null,"city":"Santa Ana","region":"California","postcode":"92705","country":"United States","coordinates":{"lat":33.8,"lon":-117.8}},"registered":true,"program":{"id":1,"name":"VEX V5 Robotics Competition","code":"V5RC"},"grade":"High School"}}},{"id":"/teams/154106","value":{"url":"/teams/154106","created":"2025-09-14T17:53:13.646Z","data":{"id":154106,"number":"9924X","team_name":"Hydra","robot_name":"idk","organization":"Hydra Robotics","location":{"venue":null,"address_1":"","address_2":null,"city":"Irvine","region":"California","postcode":"92618","country":"United States","coordinates":{"lat":33.7,"lon":-117.7}},"registered":true,"program":{"id":1,"name":"VEX V5 Robotics Competition","code":"V5RC"},"grade":"High School"}}},{"id":"/teams/172554","value":{"url":"/teams/172554","created":"2025-09-14T17:53:13.680Z","data":{"id":172554,"number":"98601C","team_name":"Syndicate (Troy)","robot_name":"","organization":"TROY HIGH NJROTC","location":{"venue":null,"address_1":"","address_2":null,"city":"Fullerton","region":"California","postcode":"92831","country":"United States","coordinates":{"lat":33.9,"lon":-117.9}},"registered":true,"program":{"id":1,"name":"VEX V5 Robotics Competition","code":"V5RC"},"grade":"High School"}}},{"id":"/events/60810/divisions/1/rankings?page=1&per_page=250","value":{"url":"/events/60810/divisions/1/rankings?page=1&per_page=250","created":"2025-09-14T17:53:13.695Z","data":{"meta":{"current_page":1,"first_page_url":"https://www.robotevents.com/api/v2/events/60810/divisions/1/rankings?page=1","from":1,"last_page":1,"last_page_url":"https://www.robotevents.com/api/v2/events/60810/divisions/1/rankings?page=1","next_page_url":null,"path":"https://www.robotevents.com/api/v2/events/60810/divisions/1/rankings","per_page":250,"prev_page_url":null,"to":41,"total":41},"data":[{"id":32953956,"event":{"id":60810,"name":"robotics is ez @ 2025 maker faire orange county - hs: vex v5 robotics competition - push back","code":"RE-V5RC-25-0810"},"division":{"id":1,"name":"Division 1","code":null},"rank":41,"team":{"id":164167,"name":"79793V","code":null},"wins":0,"losses":1,"ties":0,"wp":0,"ap":0,"sp":15,"high_score":15,"average_points":15,"total_points":15},{"id":32953955,"event":{"id":60810,"name":"robotics is ez @ 2025 maker faire orange county - hs: vex v5 robotics competition - push back","code":"RE-V5RC-25-0810"},"division":{"id":1,"name":"Division 1","code":null},"rank":40,"team":{"id":185403,"name":"50881B","code":null},"wins":0,"losses":1,"ties":0,"wp":0,"ap":0,"sp":15,"high_score":15,"average_points":15,"total_points":15},{"id":32953954,"event":{"id":60810,"name":"robotics is ez @ 2025 maker faire orange county - hs: vex v5 robotics competition - push back","code":"RE-V5RC-25-0810"},"division":{"id":1,"name":"Division 1","code":null},"rank":39,"team":{"id":64292,"name":"6627D","code":null},"wins":0,"losses":1,"ties":0,"wp":0,"ap":0,"sp":20,"high_score":20,"average_points":20,"total_points":20},{"id":32953953,"event":{"id":60810,"name":"robotics is ez @ 2025 maker faire orange county - hs: vex v5 robotics competition - push back","code":"RE-V5RC-25-0810"},"division":{"id":1,"name":"Division 1","code":null},"rank":38,"team":{"id":70487,"name":"21S","code":null},"wins":0,"losses":1,"ties":0,"wp":0,"ap":0,"sp":20,"high_score":20,"average_points":20,"total_points":20},{"id":32953952,"event":{"id":60810,"name":"robotics is ez @ 2025 maker faire orange county - hs: vex v5 robotics competition - push back","code":"RE-V5RC-25-0810"},"division":{"id":1,"name":"Division 1","code":null},"rank":37,"team":{"id":175446,"name":"50881A","code":null},"wins":0,"losses":1,"ties":0,"wp":0,"ap":0,"sp":44,"high_score":44,"average_points":44,"total_points":44},{"id":32953951,"event":{"id":60810,"name":"robotics is ez @ 2025 maker faire orange county - hs: vex v5 robotics competition - push back","code":"RE-V5RC-25-0810"},"division":{"id":1,"name":"Division 1","code":null},"rank":36,"team":{"id":155496,"name":"7899B","code":null},"wins":0,"losses":2,"ties":0,"wp":0,"ap":0,"sp":95,"high_score":51,"average_points":47.5,"total_points":95},{"id":32953950,"event":{"id":60810,"name":"robotics is ez @ 2025 maker faire orange county - hs: vex v5 robotics competition - push back","code":"RE-V5RC-25-0810"},"division":{"id":1,"name":"Division 1","code":null},"rank":35,"team":{"id":128664,"name":"393C","code":null},"wins":0,"losses":1,"ties":0,"wp":0,"ap":0,"sp":48,"high_score":48,"average_points":48,"total_points":48},{"id":32953949,"event":{"id":60810,"name":"robotics is ez @ 2025 maker faire orange county - hs: vex v5 robotics competition - push back","code":"RE-V5RC-25-0810"},"division":{"id":1,"name":"Division 1","code":null},"rank":34,"team":{"id":185134,"name":"334C","code":null},"wins":0,"losses":2,"ties":0,"wp":0,"ap":0,"sp":99,"high_score":51,"average_points":49.5,"total_points":99},{"id":32953948,"event":{"id":60810,"name":"robotics is ez @ 2025 maker faire orange county - hs: vex v5 robotics competition - push back","code":"RE-V5RC-25-0810"},"division":{"id":1,"name":"Division 1","code":null},"rank":33,"team":{"id":186744,"name":"3577A","code":null},"wins":0,"losses":1,"ties":0,"wp":0,"ap":0,"sp":57,"high_score":57,"average_points":57,"total_points":57},{"id":32953947,"event":{"id":60810,"name":"robotics is ez @ 2025 maker faire orange county - hs: vex v5 robotics competition - push back","code":"RE-V5RC-25-0810"},"division":{"id":1,"name":"Division 1","code":null},"rank":32,"team":{"id":50480,"name":"6627A","code":null},"wins":0,"losses":1,"ties":0,"wp":0,"ap":0,"sp":57,"high_score":57,"average_points":57,"total_points":57},{"id":32953946,"event":{"id":60810,"name":"robotics is ez @ 2025 maker faire orange county - hs: vex v5 robotics competition - push back","code":"RE-V5RC-25-0810"},"division":{"id":1,"name":"Division 1","code":null},"rank":31,"team":{"id":93708,"name":"6627X","code":null},"wins":0,"losses":2,"ties":0,"wp":0,"ap":10,"sp":84,"high_score":50,"average_points":42,"total_points":84},{"id":32953945,"event":{"id":60810,"name":"robotics is ez @ 2025 maker faire orange county - hs: vex v5 robotics competition - push back","code":"RE-V5RC-25-0810"},"division":{"id":1,"name":"Division 1","code":null},"rank":30,"team":{"id":831,"name":"21A","code":null},"wins":0,"losses":1,"ties":0,"wp":0,"ap":10,"sp":21,"high_score":21,"average_points":21,"total_points":21},{"id":32953944,"event":{"id":60810,"name":"robotics is ez @ 2025 maker faire orange county - hs: vex v5 robotics competition - push back","code":"RE-V5RC-25-0810"},"division":{"id":1,"name":"Division 1","code":null},"rank":29,"team":{"id":184662,"name":"41939V","code":null},"wins":0,"losses":1,"ties":0,"wp":0,"ap":10,"sp":33,"high_score":33,"average_points":33,"total_points":33},{"id":32953943,"event":{"id":60810,"name":"robotics is ez @ 2025 maker faire orange county - hs: vex v5 robotics competition - push back","code":"RE-V5RC-25-0810"},"division":{"id":1,"name":"Division 1","code":null},"rank":28,"team":{"id":139680,"name":"6627S","code":null},"wins":0,"losses":1,"ties":0,"wp":0,"ap":10,"sp":33,"high_score":33,"average_points":33,"total_points":33},{"id":32953942,"event":{"id":60810,"name":"robotics is ez @ 2025 maker faire orange county - hs: vex v5 robotics competition - push back","code":"RE-V5RC-25-0810"},"division":{"id":1,"name":"Division 1","code":null},"rank":27,"team":{"id":170065,"name":"2397A","code":null},"wins":0,"losses":1,"ties":0,"wp":0,"ap":10,"sp":33,"high_score":33,"average_points":33,"total_points":33},{"id":32953941,"event":{"id":60810,"name":"robotics is ez @ 2025 maker faire orange county - hs: vex v5 robotics competition - push back","code":"RE-V5RC-25-0810"},"division":{"id":1,"name":"Division 1","code":null},"rank":26,"team":{"id":184828,"name":"1744X","code":null},"wins":0,"losses":1,"ties":0,"wp":0,"ap":10,"sp":34,"high_score":34,"average_points":34,"total_points":34},{"id":32953940,"event":{"id":60810,"name":"robotics is ez @ 2025 maker faire orange county - hs: vex v5 robotics competition - push back","code":"RE-V5RC-25-0810"},"division":{"id":1,"name":"Division 1","code":null},"rank":25,"team":{"id":56122,"name":"404S","code":null},"wins":0,"losses":2,"ties":0,"wp":0,"ap":20,"sp":89,"high_score":50,"average_points":44.5,"total_points":89},{"id":32953939,"event":{"id":60810,"name":"robotics is ez @ 2025 maker faire orange county - hs: vex v5 robotics competition - push back","code":"RE-V5RC-25-0810"},"division":{"id":1,"name":"Division 1","code":null},"rank":24,"team":{"id":142325,"name":"3050V","code":null},"wins":0,"losses":1,"ties":0,"wp":0,"ap":10,"sp":50,"high_score":50,"average_points":50,"total_points":50},{"id":32953938,"event":{"id":60810,"name":"robotics is ez @ 2025 maker faire orange county - hs: vex v5 robotics competition - push back","code":"RE-V5RC-25-0810"},"division":{"id":1,"name":"Division 1","code":null},"rank":23,"team":{"id":169926,"name":"334W","code":null},"wins":1,"losses":1,"ties":0,"wp":2,"ap":0,"sp":83,"high_score":63,"average_points":56.5,"total_points":113},{"id":32953937,"event":{"id":60810,"name":"robotics is ez @ 2025 maker faire orange county - hs: vex v5 robotics competition - push back","code":"RE-V5RC-25-0810"},"division":{"id":1,"name":"Division 1","code":null},"rank":22,"team":{"id":841,"name":"21C","code":null},"wins":1,"losses":1,"ties":0,"wp":2,"ap":10,"sp":60,"high_score":88,"average_points":54.5,"total_points":109},{"id":32953936,"event":{"id":60810,"name":"robotics is ez @ 2025 maker faire orange county - hs: vex v5 robotics competition - push back","code":"RE-V5RC-25-0810"},"division":{"id":1,"name":"Division 1","code":null},"rank":21,"team":{"id":142324,"name":"3050W","code":null},"wins":1,"losses":1,"ties":0,"wp":2,"ap":20,"sp":83,"high_score":90,"average_points":64.5,"total_points":129},{"id":32953935,"event":{"id":60810,"name":"robotics is ez @ 2025 maker faire orange county - hs: vex v5 robotics competition - push back","code":"RE-V5RC-25-0810"},"division":{"id":1,"name":"Division 1","code":null},"rank":20,"team":{"id":185249,"name":"9621V","code":null},"wins":1,"losses":1,"ties":0,"wp":2,"ap":20,"sp":84,"high_score":64,"average_points":48.5,"total_points":97},{"id":32953934,"event":{"id":60810,"name":"robotics is ez @ 2025 maker faire orange county - hs: vex v5 robotics competition - push back","code":"RE-V5RC-25-0810"},"division":{"id":1,"name":"Division 1","code":null},"rank":19,"team":{"id":155333,"name":"2428W","code":null},"wins":1,"losses":0,"ties":0,"wp":2,"ap":0,"sp":21,"high_score":46,"average_points":46,"total_points":46},{"id":32953933,"event":{"id":60810,"name":"robotics is ez @ 2025 maker faire orange county - hs: vex v5 robotics competition - push back","code":"RE-V5RC-25-0810"},"division":{"id":1,"name":"Division 1","code":null},"rank":18,"team":{"id":35602,"name":"1138B","code":null},"wins":1,"losses":0,"ties":0,"wp":2,"ap":0,"sp":21,"high_score":46,"average_points":46,"total_points":46},{"id":32953932,"event":{"id":60810,"name":"robotics is ez @ 2025 maker faire orange county - hs: vex v5 robotics competition - push back","code":"RE-V5RC-25-0810"},"division":{"id":1,"name":"Division 1","code":null},"rank":17,"team":{"id":173699,"name":"3050Y","code":null},"wins":1,"losses":0,"ties":0,"wp":2,"ap":0,"sp":33,"high_score":34,"average_points":34,"total_points":34},{"id":32953931,"event":{"id":60810,"name":"robotics is ez @ 2025 maker faire orange county - hs: vex v5 robotics competition - push back","code":"RE-V5RC-25-0810"},"division":{"id":1,"name":"Division 1","code":null},"rank":16,"team":{"id":169890,"name":"8917B","code":null},"wins":1,"losses":0,"ties":0,"wp":2,"ap":0,"sp":33,"high_score":34,"average_points":34,"total_points":34},{"id":32953930,"event":{"id":60810,"name":"robotics is ez @ 2025 maker faire orange county - hs: vex v5 robotics competition - push back","code":"RE-V5RC-25-0810"},"division":{"id":1,"name":"Division 1","code":null},"rank":15,"team":{"id":172554,"name":"98601C","code":null},"wins":1,"losses":0,"ties":0,"wp":2,"ap":0,"sp":33,"high_score":63,"average_points":63,"total_points":63},{"id":32953929,"event":{"id":60810,"name":"robotics is ez @ 2025 maker faire orange county - hs: vex v5 robotics competition - push back","code":"RE-V5RC-25-0810"},"division":{"id":1,"name":"Division 1","code":null},"rank":14,"team":{"id":154424,"name":"7899X","code":null},"wins":1,"losses":0,"ties":0,"wp":2,"ap":0,"sp":34,"high_score":46,"average_points":46,"total_points":46},{"id":32953928,"event":{"id":60810,"name":"robotics is ez @ 2025 maker faire orange county - hs: vex v5 robotics competition - push back","code":"RE-V5RC-25-0810"},"division":{"id":1,"name":"Division 1","code":null},"rank":13,"team":{"id":142323,"name":"3050X","code":null},"wins":1,"losses":0,"ties":0,"wp":2,"ap":0,"sp":34,"high_score":46,"average_points":46,"total_points":46},{"id":32953927,"event":{"id":60810,"name":"robotics is ez @ 2025 maker faire orange county - hs: vex v5 robotics competition - push back","code":"RE-V5RC-25-0810"},"division":{"id":1,"name":"Division 1","code":null},"rank":12,"team":{"id":185015,"name":"3595V","code":null},"wins":1,"losses":0,"ties":0,"wp":2,"ap":0,"sp":50,"high_score":96,"average_points":96,"total_points":96},{"id":32953926,"event":{"id":60810,"name":"robotics is ez @ 2025 maker faire orange county - hs: vex v5 robotics competition - push back","code":"RE-V5RC-25-0810"},"division":{"id":1,"name":"Division 1","code":null},"rank":11,"team":{"id":154186,"name":"334U","code":null},"wins":2,"losses":0,"ties":0,"wp":4,"ap":10,"sp":87,"high_score":88,"average_points":73,"total_points":146},{"id":32953925,"event":{"id":60810,"name":"robotics is ez @ 2025 maker faire orange county - hs: vex v5 robotics competition - push back","code":"RE-V5RC-25-0810"},"division":{"id":1,"name":"Division 1","code":null},"rank":10,"team":{"id":185108,"name":"334H","code":null},"wins":2,"losses":0,"ties":0,"wp":4,"ap":10,"sp":101,"high_score":96,"average_points":80,"total_points":160},{"id":32953924,"event":{"id":60810,"name":"robotics is ez @ 2025 maker faire orange county - hs: vex v5 robotics competition - push back","code":"RE-V5RC-25-0810"},"division":{"id":1,"name":"Division 1","code":null},"rank":9,"team":{"id":56152,"name":"2150X","code":null},"wins":1,"losses":0,"ties":0,"wp":2,"ap":10,"sp":15,"high_score":107,"average_points":107,"total_points":107},{"id":32953923,"event":{"id":60810,"name":"robotics is ez @ 2025 maker faire orange county - hs: vex v5 robotics competition - push back","code":"RE-V5RC-25-0810"},"division":{"id":1,"name":"Division 1","code":null},"rank":8,"team":{"id":70368,"name":"2496N","code":null},"wins":1,"losses":0,"ties":0,"wp":2,"ap":10,"sp":15,"high_score":107,"average_points":107,"total_points":107},{"id":32953922,"event":{"id":60810,"name":"robotics is ez @ 2025 maker faire orange county - hs: vex v5 robotics competition - push back","code":"RE-V5RC-25-0810"},"division":{"id":1,"name":"Division 1","code":null},"rank":7,"team":{"id":11998,"name":"2150A","code":null},"wins":1,"losses":0,"ties":0,"wp":2,"ap":10,"sp":20,"high_score":94,"average_points":94,"total_points":94},{"id":32953921,"event":{"id":60810,"name":"robotics is ez @ 2025 maker faire orange county - hs: vex v5 robotics competition - push back","code":"RE-V5RC-25-0810"},"division":{"id":1,"name":"Division 1","code":null},"rank":6,"team":{"id":122798,"name":"884A","code":null},"wins":2,"losses":0,"ties":0,"wp":4,"ap":20,"sp":70,"high_score":94,"average_points":73.5,"total_points":147},{"id":32953920,"event":{"id":60810,"name":"robotics is ez @ 2025 maker faire orange county - hs: vex v5 robotics competition - push back","code":"RE-V5RC-25-0810"},"division":{"id":1,"name":"Division 1","code":null},"rank":5,"team":{"id":153990,"name":"393E","code":null},"wins":1,"losses":0,"ties":0,"wp":2,"ap":10,"sp":44,"high_score":90,"average_points":90,"total_points":90},{"id":32953919,"event":{"id":60810,"name":"robotics is ez @ 2025 maker faire orange county - hs: vex v5 robotics competition - push back","code":"RE-V5RC-25-0810"},"division":{"id":1,"name":"Division 1","code":null},"rank":4,"team":{"id":33301,"name":"404E","code":null},"wins":1,"losses":0,"ties":0,"wp":2,"ap":10,"sp":48,"high_score":58,"average_points":58,"total_points":58},{"id":32953918,"event":{"id":60810,"name":"robotics is ez @ 2025 maker faire orange county - hs: vex v5 robotics competition - push back","code":"RE-V5RC-25-0810"},"division":{"id":1,"name":"Division 1","code":null},"rank":3,"team":{"id":169488,"name":"12125A","code":null},"wins":1,"losses":0,"ties":0,"wp":2,"ap":10,"sp":50,"high_score":53,"average_points":53,"total_points":53},{"id":32953917,"event":{"id":60810,"name":"robotics is ez @ 2025 maker faire orange county - hs: vex v5 robotics competition - push back","code":"RE-V5RC-25-0810"},"division":{"id":1,"name":"Division 1","code":null},"rank":2,"team":{"id":154106,"name":"9924X","code":null},"wins":1,"losses":0,"ties":0,"wp":2,"ap":10,"sp":57,"high_score":62,"average_points":62,"total_points":62},{"id":32953916,"event":{"id":60810,"name":"robotics is ez @ 2025 maker faire orange county - hs: vex v5 robotics competition - push back","code":"RE-V5RC-25-0810"},"division":{"id":1,"name":"Division 1","code":null},"rank":1,"team":{"id":128665,"name":"393D","code":null},"wins":1,"losses":0,"ties":0,"wp":2,"ap":10,"sp":57,"high_score":62,"average_points":62,"total_points":62}]}}},{"id":"/events/60810/skills?page=1&per_page=250","value":{"url":"/events/60810/skills?page=1&per_page=250","created":"2025-09-14T17:53:14.363Z","data":{"meta":{"current_page":1,"first_page_url":"https://www.robotevents.com/api/v2/events/60810/skills?page=1","from":1,"last_page":1,"last_page_url":"https://www.robotevents.com/api/v2/events/60810/skills?page=1","next_page_url":null,"path":"https://www.robotevents.com/api/v2/events/60810/skills","per_page":250,"prev_page_url":null,"to":2,"total":2},"data":[{"id":63870854,"event":{"id":60810,"name":"robotics is ez @ 2025 maker faire orange county - hs: vex v5 robotics competition - push back","code":"RE-V5RC-25-0810"},"team":{"id":185249,"name":"9621V","code":null},"type":"driver","season":{"id":197,"name":"VEX V5 Robotics Competition 2025-2026: Push Back","code":null},"division":null,"rank":1,"score":0,"attempts":0},{"id":63870855,"event":{"id":60810,"name":"robotics is ez @ 2025 maker faire orange county - hs: vex v5 robotics competition - push back","code":"RE-V5RC-25-0810"},"team":{"id":185249,"name":"9621V","code":null},"type":"programming","season":{"id":197,"name":"VEX V5 Robotics Competition 2025-2026: Push Back","code":null},"division":null,"rank":1,"score":0,"attempts":1}]}}}],"users":[],"event_60810":[]}